ID,Fuel Type Code,Station Name,Street Address,Intersection Directions,City,State,ZIP,Groups With Access Code,Access Days Time,Cards Accepted,BD Blends,NG Fill Type Code,NG PSI,EV Level1 EVSE Num,EV Level2 EVSE Num,EV DC Fast Count,EV Other Info,EV Network,EV Network Web,Geocode Status,Latitude,Longitude,Date Last Confirmed,ID,Updated At,Owner Type Code,Federal Agency ID,Federal Agency Name,Open Date,Hydrogen Status Link,NG Vehicle Class,LPG Primary,E85 Blender Pump,EV Connector Types,Country,Intersection Directions (French),Access Days Time (French),BD Blends (French),Groups With Access Code (French),Hydrogen Is Retail,Access Code,Access Detail Code,Federal Agency Code,Facility Type,CNG Dispenser Num,CNG On-Site Renewable Source,CNG Total Compression Capacity,CNG Storage Capacity,LNG On-Site Renewable Source,E85 Other Ethanol Blends,EV Pricing,EV Pricing (French),LPG Nozzle Types,Hydrogen Pressures,Hydrogen Standards,CNG Fill Type Code,CNG PSI,CNG Vehicle Class,LNG Vehicle Class,EV On-Site Renewable Source
UN,ELEC,City of Sacramento - Capitol Parking Garage,1015 L St,"At 10th and L, 2nd Level",Sacramento,CA,95814,Public,Garage business hours; pay lot,,,,,2,,,3 SP Inductive,Unknown,,GPS,38.5783802,-121.4926,5/9/2019,1498,2019-05-14 21:16:45 UTC,LG,,,8/20/18,,,,,NEMA520,US,,,,Public,,public,,,PAY_GARAGE,,,,,,,,,,,,,,,,
UN,ELEC,Hilton - Los Angeles International Airport,5711 W Century Blvd,,Los Angeles,CA,90045,Public,24 hours daily; for guest use only; see valet for access,,,,,,1,,,Unknown,,200-9,33.946181,-118.38161,2/6/2019,7180,2019-05-14 21:16:45 UTC,P,,,8/1/15,,,,,J1772,US,,,,Public,,public,,,HOTEL,,,,,,,,,,,,,,,,
UN,ELEC,Helms Bakery Building,8800 Venice Blvd,,Los Angeles,CA,90034,Public,24 hours daily,,,,,,6,,,Unknown,,200-9,34.029971,-118.385231,3/7/2019,21525,2019-05-14 21:16:45 UTC,P,,,4/25/17,,,,,J1772,US,,,,Public,,public,,,PARKING_GARAGE,,,,,,,$1 per hour for first two hours; $3 per hour thereafter,,,,,,,,,
UN,ELEC,Citrus Heights City Hall,6360 Fountain Square Dr,,Citrus Heights,CA,95621,Public,24 hours daily,,,,,,3,,1 SP Inductive,Unknown,,GPS,38.67995,-121.2989,5/3/2018,25519,2019-05-14 21:16:45 UTC,LG,,,2/1/16,,,,,J1772,US,,,,Public,,public,,,MUNI_GOV,,,,,,,Free,,,,,,,,,
UN,ELEC,City of Lacey - City Hall Parking,420 College St,"At 3rd Ave SE, next to police station",Lacey,WA,98503,Public,24 hours daily,,,,,4,,,,Unknown,,200-9,47.044011,-122.822404,7/9/2019,33351,2019-07-09 17:26:18 UTC,LG,,,1/15/18,,,,,NEMA520,US,,,,Public,,public,,,MUNI_GOV,,,,,,,,,,,,,,,,
UN,ELEC,Discovery Center of Idaho,131 W Myrtle St,,Boise,ID,83702,Public,24 hours daily,,,,,,2,,,Unknown,,200-8,43.609048,-116.199508,3/7/2019,34106,2019-05-14 21:16:45 UTC,P,,,4/20/17,,,,,J1772,US,,,,Public,,public,,,MUSEUM,,,,,,,Free,,,,,,,,,
UN,ELEC,Alan Jay Nissan,1700 Flare Rd,,Sebring,FL,33870,Public - Call ahead,Dealership business hours,,,,,,1,1,,Unknown,,GPS,27.485756,-81.481603,6/5/2018,39975,2019-05-14 21:16:45 UTC,P,,,1/16/17,,,,,CHADEMO J1772,US,,,,Public - Appeler à l'avance,,public,CALL,,CAR_DEALER,,,,,,,Free,,,,,,,,,
UN,ELEC,Younger Nissan,7418 Grove Rd,,Frederick,MD,21704,Public - Call ahead,Dealership business hours,,,,,,1,,,Unknown,,200-9,39.391175,-77.407835,7/9/2018,40025,2019-05-14 21:16:45 UTC,P,,,6/26/18,,,,,J1772,US,,,,Public - Appeler à l'avance,,public,CALL,,CAR_DEALER,,,,,,,Free,,,,,,,,,
UN,ELEC,Colonial Honda of Dartmouth,225 State Rd,,North Dartmouth,MA,2747,Public - Call ahead,Dealership business hours,,,,,,1,,,Unknown,,200-9,41.638274,-70.979635,10/4/2018,41582,2019-05-14 21:16:45 UTC,P,,,1/15/17,,,,,J1772,US,,,,Public - Appeler à l'avance,,public,CALL,,CAR_DEALER,,,,,,,Free,,,,,,,,,
UN,ELEC,AAA Car Care Plus,8120 Main St,,Clarence,NY,14221,Public,24 hours daily,,,,,,1,,,Unknown,,200-8,42.965117,-78.69245,6/6/2019,42993,2019-06-06 17:52:59 UTC,P,,,12/17/18,,,,,J1772,US,,,,Public,,public,,,SHOPPING_CENTER,,,,,,,Free,,,,,,,,,
UN,ELEC,Nissan North America,1 Nissan Way,,Franklin,TN,37067,Public,24 hours daily,,,,,,4,3,,Unknown,,GPS,35.940203,-86.813764,11/8/2018,43762,2019-05-14 21:16:45 UTC,P,,,1/1/16,,,,,CHADEMO J1772,US,,,,Public,,public,,,OFFICE_BLDG,,,,,,,,,,,,,,,,
UN,ELEC,City of Renton - City Hall,1055 S Grady Way,,Renton,WA,98057,Public,24 hours daily,,,,,,2,,,Unknown,,200-9,47.474537,-122.204976,2/6/2019,43796,2019-05-14 21:16:45 UTC,LG,,,1/12/17,,,,,J1772,US,,,,Public,,public,,,MUNI_GOV,,,,,,,Free,,,,,,,,,
UN,ELEC,White Plains Nissan,500 Tarrytown Rd,,White Plains,NY,10607,Public - Call ahead,Dealership business hours,,,,,,1,,,Unknown,,200-9,41.043879,-73.801844,7/9/2018,44214,2019-05-14 21:16:45 UTC,P,,,6/28/18,,,,,J1772,US,,,,Public - Appeler à l'avance,,public,CALL,,CAR_DEALER,,,,,,,,,,,,,,,,
UN,ELEC,Waikem Nissan,4325 Lincoln Way E,,Massillon,OH,44646,Public - Call ahead,Dealership business hours,,,,,,1,,,Unknown,,200-9,40.792015,-81.453111,7/9/2018,45744,2019-05-14 21:16:45 UTC,P,,,6/28/18,,,,,J1772,US,,,,Public - Appeler à l'avance,,public,CALL,,CAR_DEALER,,,,,,,,,,,,,,,,
UN,ELEC,City of Charleston - Gaillard Auditorium,32 Alexander St,,Charleston,SC,29401,Public,Garage business hours; pay lot,,,,,,4,,,Unknown,,200-8,32.787311,-79.930037,7/9/2019,45770,2019-07-09 17:26:18 UTC,LG,,,5/1/17,,,,,J1772,US,,,,Public,,public,,,PAY_GARAGE,,,,,,,$1 per half hour parking fee; maximum payment of $16,,,,,,,,,
UN,ELEC,Petro Nissan,6248 Highway 98 W,,Hattiesburg,MS,39402,Public - Call ahead,Dealership business hours,,,,,,1,,,Unknown,,GPS,31.3178137,-89.3946827,6/6/2019,45836,2019-06-06 17:52:59 UTC,P,,,6/23/15,,,,,J1772,US,,,,Public - Appeler à l'avance,,public,CALL,,CAR_DEALER,,,,,,,,,,,,,,,,
UN,ELEC,Haddad Nissan,25 W Housatonic St,,Pittsfield,MA,1201,Public - Call ahead,Dealership business hours,,,,,,1,,,Unknown,,200-9,42.445108,-73.256216,7/9/2018,45908,2019-05-14 21:16:45 UTC,P,,,6/26/18,,,,,J1772,US,,,,Public - Appeler à l'avance,,public,CALL,,CAR_DEALER,,,,,,,,,,,,,,,,
UN,ELEC,Woody Folsom Nissan,1609 E 1st St,,Vidalia,GA,30474,Public - Call ahead,Dealership business hours,,,,,,1,,,Unknown,,200-9,32.210564,-82.391607,6/5/2018,46494,2019-05-14 21:16:45 UTC,P,,,5/29/18,,,,,J1772,US,,,,Public - Appeler à l'avance,,public,CALL,,CAR_DEALER,,,,,,,Free,,,,,,,,,
UN,ELEC,Ace Hardware,480 Kamokila,,Kapolei,HI,96707,Public,24 hours daily,,,,,,1,,,Unknown,,200-9,21.329863,-158.086621,5/3/2018,46779,2019-05-14 21:16:45 UTC,P,,,4/12/17,,,,,J1772,US,,,,Public,,public,,,PARKING_LOT,,,,,,,Free,,,,,,,,,
UN,ELEC,Montreat College,310 Appalachian Way,Located in L Nelson Bell Library & Belk Student Center parking lot. Lookout Road & Appalachian Way,Montreat,NC,28757,Public,24 hours daily,,,,,,1,,,Unknown,,GPS,35.64569,-82.296916,7/9/2018,47017,2019-05-14 21:16:45 UTC,J,,,7/6/17,,,,,J1772,US,,,,Public,,public,,,COLLEGE_CAMPUS,,,,,,,Free,,,,,,,,,
UN,ELEC,Aiken Electric Co-op,2790 Wagener Rd,1.5 miles East of SC Highway 118. Located in front of the flagpole,Aiken,SC,29801,Public,8am-6pm M-F,,,,,,1,,,Unknown,,GPS,33.547058,-81.6535,7/9/2019,47233,2019-07-09 17:26:18 UTC,T,,,1/1/18,,,,,J1772,US,,,,Public,,public,,,COOP,,,,,,,Free,,,,,,,,,
UN,ELEC,City of Columbus - Goodale Park,120 W Goodale St,Goodale St Between Park and Dennison St,Columbus,OH,43215,Public,24 hours daily; meter parking,Cash D M V,,,,,1,,,Unknown,,200-9,39.975215,-83.00678,3/7/2019,47452,2019-05-14 21:16:45 UTC,LG,,,10/7/16,,,,,J1772,US,,,,Public,,public,,,MUNI_GOV,,,,,,,Free,,,,,,,,,
UN,ELEC,City of Gulfport - Casino,5500 Shore Blvd S,Casino building street parking,Gulfport,FL,33707,Public,24 hours daily,,,,,,1,,,Unknown,,GPS,27.737752,-82.707812,6/6/2019,47657,2019-06-06 17:52:59 UTC,T,,,1/15/18,,,,,J1772,US,,,,Public,,public,,,OTHER_ENTERTAINMENT,,,,,,,Free,,,,,,,,,
UN,ELEC,Antwerpen Nissan,11405 Reisterstown Rd,,Owings Mills,MD,21117,Public - Call ahead,Dealership business hours,,,,,,1,,,Unknown,,200-9,39.438482,-76.802793,7/9/2018,47702,2019-05-14 21:16:45 UTC,P,,,6/26/18,,,,,J1772,US,,,,Public - Appeler à l'avance,,public,CALL,,CAR_DEALER,,,,,,,Free,,,,,,,,,
UN,ELEC,Homewood Suites - San Jose Airport,10 W Trimble Rd,,San Jose,CA,95131,Public,24 hours daily; for guest use only,,,,,,2,,,Unknown,,GPS,37.38514,-121.9288,5/3/2018,49342,2019-05-14 21:16:45 UTC,P,,,4/28/15,,,,,J1772,US,,,,Public,,public,,,HOTEL,,,,,,,Free,,,,,,,,,
UN,ELEC,Langway Chevrolet of Manchester,4847 Main St,,Manchester,VT,5255,Public - Call ahead,Dealership business hours,,,,,,1,,,Unknown,,GPS,43.1769,-73.05818,12/11/2018,49406,2019-05-14 21:16:45 UTC,P,,,12/27/17,,,,,J1772,US,,,,Public - Appeler à l'avance,,public,CALL,,CAR_DEALER,,,,,,,Free,,,,,,,,,
UN,ELEC,University of Pittsburgh Medical Center - Presbyterian Hospital Parking Garage,255 Lothrop St,"Lothrop and Terrace Street, enter garage off of Lothrop St",Pittsburgh,PA,15213,Public,24 hours daily,,,,,,2,,,Unknown,,200-8,40.442343,-79.961776,12/11/2018,49460,2019-05-14 21:16:45 UTC,P,,,10/24/16,,,,,J1772,US,,,,Public,,public,,,HOSPITAL,,,,,,,,,,,,,,,,
UN,ELEC,State Capitol,422 Rice St,Ramp F,St. Paul,MN,55103,Public,24 hours daily,,,,,,2,,,Unknown,,GPS,44.9554,-93.105642,12/11/2018,49521,2019-05-14 21:16:45 UTC,SG,,,1/31/16,,,,,J1772,US,,,,Public,,public,,,STATE_GOV,,,,,,,Free,,,,,,,,,SOLAR
UN,ELEC,Central Avenue Nissan,1919 Central Park Ave,,Yonkers,NY,10710,Public - Call ahead,Dealership business hours; Nissan use only,,,,,,1,1,,Unknown,,200-9,40.96453,-73.839438,7/9/2018,49678,2019-05-14 21:16:45 UTC,P,,,4/5/16,,,,,CHADEMO J1772 J1772COMBO,US,,,,Public - Appeler à l'avance,,public,CALL,,CAR_DEALER,,,,,,,Free,,,,,,,,,
UN,ELEC,Commonwealth Nissan,1 Commonwealth Dr,,Lawrence,MA,1841,Public - Call ahead,Dealership business hours,,,,,,,1,,Unknown,,200-9,42.715137,-71.139068,7/9/2018,49809,2019-05-14 21:16:45 UTC,P,,,10/1/16,,,,,CHADEMO,US,,,,Public - Appeler à l'avance,,public,CALL,,CAR_DEALER,,,,,,,Free,,,,,,,,,
UN,ELEC,Gateway Nissan,441 28th St S,,Fargo,ND,58103,Public,Dealership business hours,,,,,,1,,,Unknown,,200-8,46.870647,-96.827449,6/6/2019,49886,2019-06-06 17:52:59 UTC,P,,,6/27/18,,,,,J1772,US,,,,Public,,public,,,CAR_DEALER,,,,,,,Free,,,,,,,,,
UN,ELEC,The Market Place,13762 Jamboree Rd,Located by Edwards Cinema on West Dr,Tustin,CA,92602,Public - Credit card at all times,24 hours daily,A M V,,,,,2,2,,Unknown,,GPS,33.723303,-117.789218,3/7/2019,50158,2019-05-14 21:16:45 UTC,P,,,4/28/17,,,,,CHADEMO J1772 J1772COMBO,US,,,,Public - Carte de crédit en tout temps,,public,CREDIT_CARD_ALWAYS,,SHOPPING_MALL,,,,,,,$1 per hour,,,,,,,,,
UN,ELEC,Buncombe County - Health and Human Services,40 Coxe Ave,Access is off Coxe Ave. on Sears Alley on the north side of building,Asheville,NC,28801,Public,24 hours daily; pay lot; maximum session time of 4 hours,,,,,,4,,,Unknown,,GPS,35.593656,-82.555258,4/8/2019,50172,2019-05-14 21:16:45 UTC,P,,,2/1/18,,,,,J1772,US,,,,Public,,public,,,PAY_GARAGE,,,,,,,Free,,,,,,,,,
UN,ELEC,East Lansing - Library,950 Abbott Rd,,East Lansing,MI,48823,Public,24 hours daily,,,,,,1,,,Unknown,,200-8,42.743375,-84.483726,7/9/2019,50836,2019-07-09 17:26:18 UTC,P,,,4/22/18,,,,,J1772,US,,,,Public,,public,,,LIBRARY,,,,,,,,,,,,,,,,
UN,ELEC,Bob Swope Ford,1307 N Dixie Hwy,,Elizabethtown,KY,42701,Public - Call ahead,Dealership business hours,,,,,,2,,,Unknown,,200-9,37.720765,-85.877722,2/6/2019,51661,2019-05-14 21:16:45 UTC,P,,,6/27/16,,,,,J1772,US,,,,Public - Appeler à l'avance,,public,CALL,,CAR_DEALER,,,,,,,Free,,,,,,,,,
UN,ELEC,Bob Boyd Ford,2840 N Columbus St,Located near the rear service door,Lancaster,OH,43130,Public,24 hours daily,,,,,,2,,,Unknown,,200-9,39.746087,-82.647696,3/8/2018,51697,2019-05-14 21:16:45 UTC,P,,,12/27/16,,,,,J1772,US,,,,Public,,public,,,CAR_DEALER,,,,,,,Free,,,,,,,,,
UN,ELEC,Marymount College at San Pedro,15401 USS New Jersey,Located at the dorms,Los Angeles,CA,90732,Public,24 hours daily,,,,,,2,,,Unknown,,200-8,33.777672,-118.302516,2/6/2019,51951,2019-05-14 21:16:45 UTC,P,,,8/20/18,,,,,J1772,US,,,,Public,,public,,,COLLEGE_CAMPUS,,,,,,,Free,,,,,,,,,
UN,ELEC,Jarrett Gordon Ford Lincoln,3015 Lake Alfred Rd,,Winter Haven,FL,33881,Public - Call ahead,Dealership business hours,,,,,,2,,,Unknown,,200-9,28.053921,-81.734334,2/6/2019,51971,2019-05-14 21:16:45 UTC,P,,,7/21/16,,,,,J1772,US,,,,Public - Appeler à l'avance,,public,CALL,,CAR_DEALER,,,,,,,Free,,,,,,,,,
UN,ELEC,Town Hall,14 Court Square,Located in the parking lot behind town hall,Greenfield,MA,1301,Public,24 hours daily,,,,,,2,,,Unknown,,200-9,42.587554,-72.601296,8/7/2018,52054,2019-05-14 21:16:45 UTC,LG,,,9/29/16,,,,,J1772,US,,,,Public,,public,,,PARKING_LOT,,,,,,,Free,,,,,,,,,
UN,ELEC,Mount Washington Auto Road,1 Mount Washington Auto Rd,Located on left side of Red Barn at the lodge on the east side of Rt 16.,Gorham,NH,3581,Public,24 hours daily; donations accepted,,,,,,2,,,Unknown,,GPS,44.288822,-71.224619,4/8/2019,52659,2019-05-14 21:16:45 UTC,P,,,5/1/16,,,,,J1772,US,,,,Public,,public,,,CONVENIENCE_STORE,,,,,,,Free,,,,,,,,,
UN,ELEC,Shelby Farms Park Conservancy,518 Pine Lake Dr,,Memphis,TN,38134,Public,Dawn to dusk daily,,,,,,10,,,Unknown,,GPS,35.140771,-89.834205,9/10/2018,52834,2019-05-14 21:16:45 UTC,LG,,,9/1/16,,,,,J1772,US,,,,Public,,public,,,PARK,,,,,,,Free,,,,,,,,,SOLAR
UN,ELEC,Corwin Ford,5707 E Gate Blvd,,Nampa,ID,83687,Public,Dealership business hours,,,,,,1,,,Unknown,,200-9,43.600942,-116.507727,3/7/2019,53854,2019-05-14 21:16:45 UTC,P,,,4/1/15,,,,,J1772,US,,,,Public,,public,,,CAR_DEALER,,,,,,,Free,,,,,,,,,
UN,ELEC,16800 Building,16800 Aston St,,Irvine,CA,92606,Public,24 hours daily; Also accepts Mobile Now,,,,,,2,,,Unknown,,200-9,33.700072,-117.842978,9/10/2018,53907,2019-05-14 21:16:45 UTC,P,,,7/1/17,,,,,J1772,US,,,,Public,,public,,,OFFICE_BLDG,,,,,,,$2 per hour,,,,,,,,,
UN,ELEC,Rick Hendrick Chevrolet Buick GMC,12050 W Broad St,,Richmond,VA,23233,Public - Call ahead,24 hours daily,,,,,,2,,,Unknown,,200-9,37.660063,-77.629638,12/11/2018,53958,2019-05-14 21:16:45 UTC,P,,,2/1/17,,,,,J1772,US,,,,Public - Appeler à l'avance,,public,CALL,,CAR_DEALER,,,,,,,Free,,,,,,,,,
UN,ELEC,Rockwall Ford,990 E I-30,,Rockwall,TX,75087,Public - Call ahead,Dealership business hours,,,,,,2,,,Unknown,,200-9,32.907799,-96.453575,2/6/2019,53992,2019-05-14 21:16:45 UTC,P,,,7/1/15,,,,,J1772,US,,,,Public - Appeler à l'avance,,public,CALL,,CAR_DEALER,,,,,,,Free,,,,,,,,,
UN,ELEC,Harris Teeter,2425 N Harrison St,,Arlington,VA,22207,Public,24 hours daily,,,,,,2,,,Unknown,,200-9,38.89714,-77.138326,6/5/2018,53995,2019-05-14 21:16:45 UTC,P,,,4/16/18,,,,,J1772,US,,,,Public,,public,,,GROCERY,,,,,,,,,,,,,,,,
UN,ELEC,Krenzen Nissan,2500 Mall Dr,,Duluth,MN,55811,Public - Call ahead,Dealership business hours,,,,,,1,,,Unknown,,200-9,46.812424,-92.174053,7/9/2018,60979,2019-05-14 21:16:45 UTC,P,,,2/10/16,,,,,J1772,US,,,,Public - Appeler à l'avance,,public,CALL,,CAR_DEALER,,,,,,,,,,,,,,,,
UN,ELEC,Dave Syverson Nissan,2310 E Main St,,Albert Lea,MN,56007,Public - Call ahead,Dealership business hours,,,,,,1,,,Unknown,,200-9,43.655954,-93.334482,7/9/2018,60981,2019-05-14 21:16:45 UTC,P,,,2/10/16,,,,,J1772,US,,,,Public - Appeler à l'avance,,public,CALL,,CAR_DEALER,,,,,,,,,,,,,,,,
UN,ELEC,Stonehaus at Westlake Village Inn,32039 Agoura Rd,,Westlake Village,CA,91361,Public,24 hours daily; free for hotel and restaurant guests,,,,,,1,,,Unknown,,200-8,34.148044,-118.818336,5/3/2018,61532,2019-05-14 21:16:45 UTC,P,,,4/30/18,,,,,J1772,US,,,,Public,,public,,,HOTEL,,,,,,,Free,,,,,,,,,
UN,ELEC,California State University - Fresno,5010 N Woodrow Ave,Located at in Lot PS2 at N Woodrow Avenue and Matoian Way on the west side of the Save-Mart center,Fresno,CA,93710,Public,Lot business hours; pay lot,,,,,,4,2,,Unknown,,200-8,36.80873,-119.740787,2/6/2019,61815,2019-05-14 21:16:45 UTC,P,,,5/1/15,,,,,CHADEMO J1772,US,,,,Public,,public,,,COLLEGE_CAMPUS,,,,,,,$1 per hour,,,,,,,,,
UN,ELEC,Foothills Mall,215 E Foothills Pkwy,Located on the west side of second floor of parking garage,Fort Collins,CO,80525,Public,24 hours daily,,,,,,2,1,,Unknown,,GPS,40.54235,-105.071239,11/8/2018,62279,2019-05-14 21:16:45 UTC,P,,,1/1/16,,,,,CHADEMO J1772,US,,,,Public,,public,,,SHOPPING_MALL,,,,,,,Free,,,,,,,,,
UN,ELEC,City of Martinsburg - Main Street,116 E Burke St,,Martinsburg,WV,25401,Public,24 hours daily; metered parking,,,,,,1,,,Unknown,,GPS,39.457409,-77.962882,1/10/2019,62584,2019-05-14 21:16:45 UTC,LG,,,8/24/16,,,,,J1772,US,,,,Public,,public,,,STREET_PARKING,,,,,,,Free,,,,,,,,,SOLAR
UN,ELEC,Comfort Inn - Blythewood,436 McNulty St,Located at I-77 exit 27,Blythewood,SC,29016,Public - Call ahead,24 hours daily; for guest use only,,,,,,2,,,Unknown,,200-9,34.215009,-80.98145,7/9/2019,62826,2019-07-09 17:26:18 UTC,LG,,,11/15/17,,,,,J1772,US,,,,Public - Appeler à l'avance,,public,CALL,,HOTEL,,,,,,,Free,,,,,,,,,
UN,ELEC,Extra Space Storage,601 Cedar St,Cedar at Eastshore Highway (I-80),Berkeley,CA,94710,Public,24 hours daily,,,,,,1,,,Unknown,,200-9,37.873525,-122.304802,9/10/2018,62833,2019-05-14 21:16:45 UTC,P,,,10/15/17,,,,,J1772,US,,,,Public,,public,,,STORAGE,,,,,,,Free,,,,,,,,,
O,ELEC,Los Angeles Metro - Sierra Madre Villa Station,149 N Halstead St,Located on the 1st level of the parking structure. Enter from the Sierra Madre Villa Ave entrance,Pasadena,CA,91107,Public,"24 hours daily; pay lot; for Metro rider use only; must have EV Connect account to access, see www.metro.net/projects/ev/ for more information",,,,,,4,,,EV Connect,http://evconnect.com/,200-8,34.14883,-118.079622,5/9/2019,63168,2019-05-14 21:16:45 UTC,P,,,2/1/16,,,,,J1772,US,,,,Public,,public,,,PARKING_LOT,,,,,,,$1 per hour; Maximum payment of $3,,,,,,,,,
UN,ELEC,J Sargent Reynolds Community College,1851 Dickinson Rd,,Goochland,VA,23063,Public,24 hours daily,,,,,,2,,,Unknown,,GPS,37.693394,-77.8859049,6/5/2018,63344,2019-05-14 21:16:45 UTC,P,,,6/7/16,,,,,J1772,US,,,,Public,,public,,,COLLEGE_CAMPUS,,,,,,,,,,,,,,,,
UN,ELEC,City of Richmond - Main Street Center,1500 E Main St,,Richmond,VA,23219,Public,24 hours daily,,,,,,2,1,,Unknown,,200-9,37.53505,-77.428959,2/6/2019,63346,2019-05-14 21:16:45 UTC,LG,,,8/25/15,,,,,CHADEMO J1772 J1772COMBO,US,,,,Public,,public,,,PARKING_LOT,,,,,,,,,,,,,,,,
UN,ELEC,Scope Arena Parking,201 E Brambleton Ave,,Norfolk,VA,23510,Public,24 hours daily,,,,,,,1,,Unknown,,200-9,36.85284,-76.287105,2/6/2019,63350,2019-05-14 21:16:45 UTC,P,,,2/4/15,,,,,CHADEMO J1772COMBO,US,,,,Public,,public,,,ARENA,,,,,,,Free,,,,,,,,,
UN,ELEC,Will Rogers State Historic Park,1501 Will Rogers State Park Rd,,Los Angeles,CA,90272,Public,Park business hours,,,,,,2,,,Unknown,,GPS,34.054983,-118.512636,5/9/2019,63471,2019-05-14 21:16:45 UTC,SG,,,12/31/15,,,,,J1772,US,,,,Public,,public,,,PARK,,,,,,,Free,,,,,,,,,
UN,ELEC,Fort Ross State Historic Park,19005 Coast Hwy,,Jenner,CA,95450,Public,Park business hours,,,,,,2,,,Unknown,,200-8,38.518493,-123.24643,5/3/2018,63477,2019-05-14 21:16:45 UTC,P,,,4/1/16,,,,,J1772,US,,,,Public,,public,,,PARK,,,,,,,,,,,,,,,,
UN,ELEC,Tom Wood Ford,3130 E 96th St,,Indianapolis,IN,46240,Public,Dealership business hours,,,,,,1,,,Unknown,,200-9,39.927926,-86.113539,11/8/2018,63531,2019-05-14 21:16:45 UTC,P,,,2/1/17,,,,,J1772,US,,,,Public,,public,,,CAR_DEALER,,,,,,,Free,,,,,,,,,
UN,ELEC,Sunrise Ford,5435 S US Highway 1,,Fort Pierce,FL,34982,Public - Call ahead,Dealership business hours; for Ford vehicles only,,,,,,1,,,Unknown,,200-9,27.36623,-80.327301,2/6/2019,63605,2019-05-14 21:16:45 UTC,P,,,8/1/15,,,,,J1772,US,,,,Public - Appeler à l'avance,,public,CALL,,CAR_DEALER,,,,,,,Free,,,,,,,,,
UN,ELEC,Pacific Place Garage,22 4th St,,San Francisco,CA,94103,Public,Garage business hours,,,,,,1,,,Unknown,,200-9,37.785428,-122.405467,5/9/2019,63877,2019-05-14 21:16:45 UTC,P,,,8/15/18,,,,,J1772,US,,,,Public,,public,,,PAY_GARAGE,,,,,,,Free,,,,,,,,,
UN,ELEC,Elm Street Parking Garage,19 Elm St,,Nashua,NH,3060,Public,Garage business hours,,,,,,1,,,Unknown,,200-9,42.758949,-71.466359,6/5/2018,63985,2019-05-14 21:16:45 UTC,P,,,4/1/15,,,,,J1772,US,,,,Public,,public,,,PAY_GARAGE,,,,,,,Free,,,,,,,,,
UN,ELEC,Sheetz Store #187,400 E Plank Rd,,Altoona,PA,16602,Public,24 hours daily,,,,,,,1,,Unknown,,GPS,40.480442,-78.403264,12/11/2018,64060,2019-07-26 00:03:06 UTC,SG,,,8/15/18,,,,,CHADEMO J1772COMBO,US,,,,Public,,public,,,GAS_STATION,,,,,,,$1 per five minutes,,,,,,,,,
UN,ELEC,Unity College,42 Murdock Dr,,Unity,ME,4988,Public,24 hours daily,,,,,,1,,,Unknown,,GPS,44.602068,-69.330971,3/7/2019,64698,2019-05-14 21:16:45 UTC,P,,,1/15/15,,,,,J1772,US,,,,Public,,public,,,COLLEGE_CAMPUS,,,,,,,Free,,,,,,,,,
UN,ELEC,Ricker's,1850 151st St,,Carmel,IN,46033,Public,24 hours daily,,,,,,,1,,Unknown,,200-8,40.006391,-86.1923,7/9/2018,64761,2019-05-14 21:16:45 UTC,P,,,3/13/15,,,,,CHADEMO J1772COMBO,US,,,,Public,,public,,,GAS_STATION,,,,,,,Free,,,,,,,,,
UN,ELEC,Moffitt's Ford Lincoln & RV,1819 SE Marshall St,,Boone,IA,50036,Public,"8am-5pm M-F, 8am-12pm Sat",Cash Checks D M V,,,,,1,,,Unknown,,200-9,42.035997,-93.864963,4/8/2019,64797,2019-05-14 21:16:45 UTC,P,,,3/11/15,,,,,J1772,US,,,,Public,,public,,,CAR_DEALER,,,,,,,Free,,,,,,,,,
UN,ELEC,Green Rock Apartments,1018 19th Ave NE,,Minneapolis,MN,55418,Public,8am-5pm daily,,,,,,1,,,Unknown,,200-9,45.007619,-93.244688,3/7/2019,64809,2019-05-14 21:16:45 UTC,P,,,4/30/15,,,,,J1772,US,,,,Public,,public,,,MULTI_UNIT_DWELLING,,,,,,,Free,,,,,,,,,
UN,ELEC,Green Rock Apartments,1501 Portland Ave S,,Minneapolis,MN,55404,Public,8am-5pm daily,,,,,,1,,,Unknown,,200-9,44.967773,-93.267233,3/7/2019,64811,2019-05-14 21:16:45 UTC,P,,,4/30/15,,,,,J1772,US,,,,Public,,public,,,MULTI_UNIT_DWELLING,,,,,,,Free,,,,,,,,,
UN,ELEC,Green Rock Apartments,2440 Harriet Ave,,Minneapolis,MN,55405,Public,8am-5pm M-F,,,,,,1,,,Unknown,,200-9,44.957971,-93.285849,3/7/2019,64812,2019-05-14 21:16:45 UTC,P,,,2/28/15,,,,,J1772,US,,,,Public,,public,,,MULTI_UNIT_DWELLING,,,,,,,Free,,,,,,,,,
UN,ELEC,Metro-North Train Station - Cortlandt,2 Memorial Dr,,Cortlandt Manor,NY,10520,Public,24 hours daily; pay lot,,,,,,4,,,Unknown,,200-9,41.245835,-73.921543,4/8/2019,65283,2019-05-14 21:16:45 UTC,SG,,,6/1/15,,,,,J1772,US,,,,Public,,public,,,PAY_LOT,,,,,,,Free,,,,,,,,,
O,ELEC,Beacon Metro North Train Station,1 Ferry Plaza,Located off Route 9D,Beacon,NY,12508,Public,24 hours daily,,,,,,4,,,EV Connect,http://evconnect.com/,200-8,41.505079,-73.983205,5/9/2019,65284,2019-05-14 21:16:45 UTC,SG,,,4/1/18,,,,,J1772,US,,,,Public,,public,,,PAY_LOT,,,,,,,,,,,,,,,,
O,ELEC,Port Authority Bus Terminal,625 8th Ave,,New York,NY,10018,Public,24 hours daily,,,,,,2,,,EV Connect,http://evconnect.com/,200-8,40.756177,-73.990558,5/9/2019,65287,2019-05-14 21:16:45 UTC,J,,,4/1/18,,,,,J1772,US,,,,Public,,public,,,PARKING_GARAGE,,,,,,,,,,,,,,,,
O,ELEC,Bay Ridge Municipal Parking Garage,8501 5th Ave,Located on the 3rd floor,Brooklyn,NY,11209,Public,24 hours daily,,,,,,5,,,EV Connect,http://evconnect.com/,200-8,40.62215,-74.02565,5/9/2019,65288,2019-05-14 21:16:45 UTC,LG,,,6/1/15,,,,,J1772,US,,,,Public,,public,,,PAY_GARAGE,,,,,,,Free,,,,,,,,,
O,ELEC,East 149th Street Municipal Parking Garage,315 E 149th St,,Bronx,NY,10451,Public,24 hours daily,,,,,,3,,,EV Connect,http://evconnect.com/,200-9,40.817326,-73.920914,5/9/2019,65291,2019-05-14 21:16:45 UTC,LG,,,6/1/15,,,,,J1772,US,,,,Public,,public,,,PARKING_LOT,,,,,,,Free,,,,,,,,,
O,ELEC,Saint George Courthouse,54 Central Ave,,Staten Island,NY,10301,Public,24 hours daily,,,,,,5,,,EV Connect,http://evconnect.com/,200-9,40.63947,-74.076912,5/9/2019,65296,2019-05-14 21:16:45 UTC,LG,,,8/8/16,,,,,J1772,US,,,,Public,,public,,,PARKING_LOT,,,,,,,,,,,,,,,,
O,ELEC,Jamestown Community College,525 Falconer St,,Jamestown,NY,14702,Public,24 hours daily,,,,,,2,,,EV Connect,http://evconnect.com/,200-9,42.11153,-79.219321,6/6/2019,65299,2019-06-06 17:52:59 UTC,LG,,,10/1/15,,,,,J1772,US,,,,Public,,public,,,COLLEGE_CAMPUS,,,,,,,Free,,,,,,,,,
O,ELEC,Rouses Point,139 Lake St,,Rouses Point,NY,12979,Public,24 hours daily,,,,,,2,,,EV Connect,http://evconnect.com/,200-9,44.991537,-73.36399,2/6/2019,65302,2019-05-14 21:16:45 UTC,LG,,,4/1/18,,,,,J1772,US,,,,Public,,public,,,PAY_GARAGE,,,,,,,,,,,,,,,,
O,ELEC,Freeport,Freeport Plaza E,Located at the North East corner of East Sunrise Highway and Henry St,Freeport,NY,11520,Public,24 hours daily,,,,,,1,,,EV Connect,http://evconnect.com/,GPS,40.656692,-73.580924,5/9/2019,65303,2019-05-14 21:16:45 UTC,LG,,,5/15/16,,,,,J1772,US,,,,Public,,public,,,PAY_GARAGE,,,,,,,Free,,,,,,,,,
UN,ELEC,Dumpster Depot,237 Park Ave SW,,Aiken,SC,29801,Public,24 hours daily,,,,,,2,,,Unknown,,200-9,33.558881,-81.723106,7/9/2019,65407,2019-07-09 17:26:18 UTC,P,,,1/1/15,,,,,J1772,US,,,,Public,,public,,,OFFICE_BLDG,,,,,,,Free,,,,,,,,,
UN,ELEC,Casco Community Center,940 Meadow Rd,,Casco,ME,4015,Public,24 hours daily; donations accepted,,,,,,1,,,Unknown,,200-9,44.004448,-70.522806,3/7/2019,65411,2019-05-14 21:16:45 UTC,P,,,1/20/15,,,,,J1772,US,,,,Public,,public,,,REC_SPORTS_FACILITY,,,,,,,Free,,,,,,,,,
UN,ELEC,Snoqualmie Casino,37500 SE N Bend,Located in the parking garage on each level of the garage,Issaquah,WA,98065,Public,24 hours daily,,,,,,12,,,Unknown,,200-9,47.519113,-121.841787,7/9/2019,65414,2019-07-09 17:26:18 UTC,P,,,1/1/15,,,,,J1772,US,,,,Public,,public,,,OTHER_ENTERTAINMENT,,,,,,,,,,,,,,,,
UN,ELEC,Cape May - Lewes Ferry Terminal,43 Cape Henlopen Dr,,Lewes,DE,19958,Public,Ferry operation hours,,,,,,2,,,Unknown,,200-9,38.782012,-75.118769,12/11/2018,65415,2019-05-14 21:16:45 UTC,P,,,1/21/15,,,,,J1772,US,,,,Public,,public,,,TRAVEL_CENTER,,,,,,,Free,,,,,,,,,
UN,ELEC,City of South Portland - Planning & Development,496 Ocean St,,South Portland,ME,4106,Public,8am-4:30pm M-F,,,,,,1,,,Unknown,,200-9,43.624936,-70.249832,3/7/2019,65443,2019-05-14 21:16:45 UTC,LG,,,3/1/15,,,,,J1772,US,,,,Public,,public,,,MUNI_GOV,,,,,,,Free,,,,,,,,,
UN,ELEC,Mills Rentals Office,120 Purefoy Rd,Located next to the street between 118 and 119 Purefoy Rd,Chapel Hill,NC,27514,Public - Card key at all times,24 hours daily; Also accepts prepaid card,M V,,,,,1,,,Unknown,,200-9,35.897388,-79.052478,7/9/2018,65520,2019-05-14 21:16:45 UTC,P,,,1/1/15,,,,,J1772,US,,,,Public - Carte-clé en tout temps,,public,KEY_ALWAYS,,STREET_PARKING,,,,,,,$1.50 per hour,,,,,,,,,
UN,ELEC,LA Fitness,7230 Firestone Blvd,Located on the west side of the building,Downey,CA,90241,Public,24 hours daily,,,,,,3,,,Unknown,,200-9,33.946978,-118.155046,2/6/2019,65657,2019-05-14 21:16:45 UTC,P,,,4/27/17,,,,,J1772,US,,,,Public,,public,,,REC_SPORTS_FACILITY,,,,,,,Free,,,,,,,,,
UN,ELEC,Grappone Toyota,594 New Hampshire 3A,,Bow,NH,3304,Public - Call ahead,Dealership business hours,,,,,,2,,,Unknown,,200-8,43.15747,-71.505224,2/6/2019,65664,2019-05-14 21:16:45 UTC,P,,,1/1/15,,,,,J1772,US,,,,Public - Appeler à l'avance,,public,CALL,,CAR_DEALER,,,,,,,Free,,,,,,,,,
UN,ELEC,Trinity College,18-60 Crescent St,,Hartford,CT,6106,Public,24 hours daily,,,,,,4,,,Unknown,,GPS,41.745582,-72.689438,4/3/2018,65817,2019-07-17 15:52:24 UTC,P,,,1/8/15,,,,,J1772,US,,,,Public,,public,,,COLLEGE_CAMPUS,,,,,,,Free,,,,,,,,,
UN,ELEC,City of Meriden - Meriden Public Library,105 Miller St,,Meriden,CT,6450,Public,24 hours daily,,,,,,2,,,Unknown,,GPS,41.537218,-72.796702,4/3/2018,65818,2019-05-14 21:16:45 UTC,LG,,,1/1/15,,,,,J1772,US,,,,Public,,public,,,LIBRARY,,,,,,,Free,,,,,,,,,
UN,ELEC,University of Connecticut - South Parking Garage,505 Jim Calhoun Way,,Storrs,CT,6269,Public,Garage business hours,,,,,,2,,,Unknown,,GPS,41.805152,-72.253601,5/3/2018,65819,2019-07-16 21:17:23 UTC,SG,,,2/12/15,,,,,J1772,US,,,,Public,,public,,,COLLEGE_CAMPUS,,,,,,,Free,,,,,,,,,
O,ELEC,PR 790 East Colorado,790 E Colorado Blvd,,Pasadena,CA,91101,Public,24 hours daily,,,,,,1,,,OpConnect,http://www.opconnect.com/,GPS,34.145799,-118.134166,5/9/2019,65915,2019-05-14 21:16:45 UTC,P,,,1/1/15,,,,,J1772,US,,,,Public,,public,,,PARKING_GARAGE,,,,,,,$1.25 per hour for first 4 hours; $5.25 per hour thereafter,,,,,,,,,
O,ELEC,PR 35 North Lake,35 N Lake Ave,,Pasadena,CA,91101,Public,24 hours daily,,,,,,1,,,OpConnect,http://www.opconnect.com/,GPS,34.146953,-118.1327,5/9/2019,65916,2019-05-14 21:16:45 UTC,P,,,1/1/15,,,,,J1772,US,,,,Public,,public,,,PARKING_GARAGE,,,,,,,$1.25 per hour for first 4 hours; $5.25 per hour thereafter,,,,,,,,,
O,ELEC,PR 155 North Lake,155 N Lake Ave,,Pasadena,CA,91101,Public,24 hours daily,,,,,,1,,,OpConnect,http://www.opconnect.com/,GPS,34.148646,-118.132835,5/9/2019,65917,2019-05-14 21:16:45 UTC,P,,,1/1/15,,,,,J1772,US,,,,Public,,public,,,PARKING_GARAGE,,,,,,,$1.25 per hour for first 4 hours; $5.25 per hour thereafter,,,,,,,,,
O,ELEC,Sheraton Princess Kaiulani,120 Kaiulani Ave,,Honolulu,HI,96815,Public,24 hours daily,,,,,,1,,,OpConnect,http://www.opconnect.com/,GPS,21.278008,-157.825806,4/8/2019,65919,2019-05-14 21:16:45 UTC,P,,,1/1/15,,,,,J1772,US,,,,Public,,public,,,HOTEL,,,,,,,Free,,,,,,,,,
O,ELEC,Kapolei Village Center,4850 Kapolei Pkwy,,Kapolei,HI,96707,Public,24 hours daily,,,,,1,1,,,OpConnect,http://www.opconnect.com/,GPS,21.328992,-158.078498,4/8/2019,65920,2019-05-14 21:16:45 UTC,P,,,1/1/15,,,,,J1772 NEMA520,US,,,,Public,,public,,,PARKING_LOT,,,,,,,$2.20 per hour,,,,,,,,,
O,ELEC,Westin Kaanapali Ocean Resort,6 Kai Ala Dr,Located in the Villas parking garage,Lahaina,HI,96761,Public,24 hours daily,,,,,2,2,,,OpConnect,http://www.opconnect.com/,GPS,20.939326,-156.69045,4/8/2019,65921,2019-05-14 21:16:45 UTC,P,,,1/1/15,,,,,J1772 NEMA520,US,,,,Public,,public,,,HOTEL,,,,,,,$2.20 per hour,,,,,,,,,
O,ELEC,Foodland,370 Kehalani Village Dr,,Wailuku,HI,96793,Public,24 hours daily,,,,,,1,,,OpConnect,http://www.opconnect.com/,GPS,20.872862,-156.502414,4/8/2019,65922,2019-05-14 21:16:45 UTC,P,,,1/1/15,,,,,J1772,US,,,,Public,,public,,,GROCERY,,,,,,,$2.20 per hour,,,,,,,,,
O,ELEC,Piedmont Triad Regional Council,1398 Carrollton Crossing Dr,Crews Farm Rd and NC Highway 66 S,Kernsersville,NC,27284,Public,8:30am-5pm M-F,,,,,,1,,,OpConnect,http://www.opconnect.com/,GPS,36.079558,-80.064636,5/9/2019,65924,2019-05-14 21:16:45 UTC,LG,,,1/1/15,,,,,J1772,US,,,,Public,,public,,,MUNI_GOV,,,,,,,$2.10 per hour,,,,,,,,,
O,ELEC,Public Parking Lot,3640 NE Martin Luther King Junior Blvd,,Portland,OR,97212,Public,24 hours daily,,,,,,1,,,OpConnect,http://www.opconnect.com/,GPS,45.54913,-122.66145,3/7/2019,65927,2019-05-14 21:16:45 UTC,P,,,1/1/15,,,,,J1772,US,,,,Public,,public,,,PARKING_LOT,,,,,,,$2.10 per hour,,,,,,,,,SOLAR
UN,ELEC,Magnolia Parke Square,NW 39th Pl and NW 48 Terrace,NW 39th Pl and NW 48 Terrace,Gainesville,FL,32606,Public,24 hours daily,,,,,,2,,,Unknown,,GPS,29.68955,-82.3951,6/6/2019,66415,2019-06-06 17:52:59 UTC,P,,,3/1/15,,,,,J1772,US,,,,Public,,public,,,PARK,,,,,,,Free,,,,,,,,,
UN,ELEC,Pace Chevrolet,239 Hauenstein Rd,,Huntington,IN,46750,Public - Call ahead,Dealership business hours,,,,,,2,,,Unknown,,200-9,40.896338,-85.513522,7/9/2018,66417,2019-05-14 21:16:45 UTC,P,,,1/1/15,,,,,J1772,US,,,,Public - Appeler à l'avance,,public,CALL,,CAR_DEALER,,,,,,,Free,,,,,,,,,
UN,ELEC,John L Scott Real Estate,2219 W Sims Way,First space in parking lot against building,Port Townsend,WA,98368,Public - Call ahead,24 hours daily,,,,,,1,,,Unknown,,200-9,48.102409,-122.80229,7/9/2019,66419,2019-07-09 17:26:18 UTC,P,,,2/1/15,,,,,J1772,US,,,,Public - Appeler à l'avance,,public,CALL,,OFFICE_BLDG,,,,,,,Free,,,,,,,,,
UN,ELEC,GreenPod Development,1531 W Sims Way,,Port Townsend,WA,98368,Public,24 hours daily,,,,,,2,,,Unknown,,200-9,48.103061,-122.794143,7/9/2019,66421,2019-07-09 17:26:18 UTC,P,,,2/3/15,,,,,J1772,US,,,,Public,,public,,,OFFICE_BLDG,,,,,,,Free,,,,,,,,,
UN,ELEC,Windermere Real Estate,1220 Water St,On the far end of the old brick gas house at rear of parking lot.,Port Townsend,WA,98368,Public - Call ahead,8am-5pm daily,,,,,,1,,,Unknown,,200-9,48.113018,-122.760544,7/9/2019,66422,2019-07-09 17:26:18 UTC,P,,,2/4/15,,,,,J1772,US,,,,Public - Appeler à l'avance,,public,CALL,,OFFICE_BLDG,,,,,,,Free,,,,,,,,,
UN,ELEC,Northwest Maritime Center,431 Water St,Last parking space on the right,Port Townsend,WA,98368,Public,24 hours daily,,,,,,1,,,Unknown,,200-9,48.11612,-122.751489,7/9/2019,66423,2019-07-09 17:26:18 UTC,P,,,2/5/15,,,,,J1772,US,,,,Public,,public,,,STREET_PARKING,,,,,,,Free,,,,,,,,,
UN,ELEC,Pearmund Cellars,6190 Georgetown Rd,,Broad Run,VA,20137,Public,10am-6pm daily; for guest use only,,,,,,1,,,Unknown,,200-9,38.784327,-77.739199,12/11/2018,66424,2019-05-14 21:16:45 UTC,P,,,3/18/15,,,,,J1772,US,,,,Public,,public,,,BREWERY_DISTILLERY_WINERY,,,,,,,,,,,,,,,,
UN,ELEC,Zion National Park - Zion Canyon Visitor Center,Highway 9,,Springdale,UT,84767,Public,8am-7:30pm daily (seasonal hours vary); purchase a $5 code at the Zion Natural History Association bookstore at the Zion Canyon Visitor Center,A Cash Checks D M V,,,,,2,,,Unknown,,GPS,37.199965,-112.986096,4/3/2018,66460,2019-05-14 21:16:45 UTC,FG,16,Department of the Interior,4/15/15,,,,,J1772,US,,,,Public,,public,,DOI,NATL_PARK,,,,,,,$5 per session,,,,,,,,,
UN,ELEC,Asheville-Buncombe Technical Community College,368 Victoria Rd,Closest to the Meadow Rd entrance in lot B17,Asheville,NC,28801,Public - Credit card at all times,24 hours daily,A D M V,,,,,1,,,Unknown,,GPS,35.58133,-82.56911,3/7/2019,66530,2019-05-14 21:16:45 UTC,P,,,3/23/15,,,,,J1772,US,,,,Public - Carte de crédit en tout temps,,public,CREDIT_CARD_ALWAYS,,COLLEGE_CAMPUS,,,,,,,DC Fast $0.50 per 5 minutes; Level 2 $0.50 per hour,,,,,,,,,
UN,ELEC,Fort Collins Senior Center,1200 Raintree Dr,Shields and Raintree; in visitor parking by the south west entrance,Fort Collins,CO,80526,Public - Credit card at all times,24 hours daily,M V,,,,,2,,,Unknown,,200-9,40.555828,-105.097973,11/8/2018,66532,2019-05-14 21:16:45 UTC,LG,,,1/1/15,,,,,J1772,US,,,,Public - Carte de crédit en tout temps,,public,CREDIT_CARD_ALWAYS,,STANDALONE_STATION,,,,,,,$1 per hour,,,,,,,,,
UN,ELEC,Colorado Mountain College - Steamboat Springs,1330 Bob Adams Dr,Located at far end (left when facing building front) at the new academic building (far west by end of loading dock),Steamboat Springs,CO,80487,Public,24 hours daily,,,,,,1,,,Unknown,,200-9,40.492065,-106.841022,12/11/2018,66534,2019-05-14 21:16:45 UTC,SG,,,1/1/15,,,,,J1772,US,,,,Public,,public,,,COLLEGE_CAMPUS,,,,,,,Free,,,,,,,,,
UN,ELEC,Virginia Clean Cities - James Madison University,1401 Technology Dr,,Harrisonburg,VA,22802,Public,24 hours daily,,,,,,2,,,Unknown,,GPS,38.465788,-78.852888,2/6/2019,66561,2019-05-14 21:16:45 UTC,P,,,3/30/15,,,,,J1772,US,,,,Public,,public,,,COLLEGE_CAMPUS,,,,,,,Free,,,,,,,,,
UN,ELEC,Maryland Institute College of Art - Commons Hall,130 McMechen St,,Baltimore,MD,21217,Public,24 hours daily,,,,,,2,,,Unknown,,200-8,39.308846,-76.625419,5/9/2019,66639,2019-05-14 21:16:45 UTC,P,,,1/12/15,,,,,J1772,US,,,,Public,,public,,,COLLEGE_CAMPUS,,,,,,,Free,,,,,,,,,
UN,ELEC,Maryland Institute College of Art - Lazarus Center,131 W North Ave,,Baltimore,MD,21201,Public,8am-5pm daily,,,,,,4,,,Unknown,,200-9,39.31074,-76.618931,5/9/2019,66640,2019-05-14 21:16:45 UTC,P,,,1/12/15,,,,,J1772,US,,,,Public,,public,,,COLLEGE_CAMPUS,,,,,,,Free,,,,,,,,,
UN,ELEC,University of Baltimore - Maryland Avenue Garage,1104 Maryland Ave,,Baltimore,MD,21201,Public,Garage business hours,,,,,,3,,,Unknown,,200-8,39.302352,-76.617606,5/9/2019,66641,2019-05-14 21:16:45 UTC,P,,,4/1/15,,,,,J1772,US,,,,Public,,public,,,COLLEGE_CAMPUS,,,,,,,Free,,,,,,,,,
UN,ELEC,Mayflower Properties,1110 Morton St,,Baltimore,MD,21201,Public - Call ahead,9am-5pm daily,,,,,,1,,,Unknown,,200-8,39.30246,-76.616698,5/9/2019,66642,2019-05-14 21:16:45 UTC,P,,,2/27/15,,,,,J1772,US,,,,Public - Appeler à l'avance,,public,CALL,,OFFICE_BLDG,,,,,,,Free,,,,,,,,,
UN,ELEC,Morton Government Center,239 John St,,Bridgeport,CT,6604,Public,24 hours daily,,,,,,1,,,Unknown,,GPS,41.177007,-73.191423,4/8/2019,66758,2019-05-14 21:16:45 UTC,LG,,,9/15/18,,,,,J1772,US,,,,Public,,public,,,MUNI_GOV,,,,,,,Free,,,,,,,,,
O,ELEC,Cobb County - Powder Springs,1150 Powder Springs St,,Marietta,GA,30064,Public,24 hours daily,,,,,,,1,,Greenlots,http://greenlots.com/,200-9,33.925418,-84.574845,12/11/2018,66787,2019-05-14 21:16:45 UTC,LG,,,4/1/15,,,,,CHADEMO,US,,,,Public,,public,,,MUNI_GOV,,,,,,,$3 per hour,,,,,,,,,
UN,ELEC,University of Cincinnati,45 W Daniels St,Located near Daniels Hall,Cincinnati,OH,45219,Public,24 hours daily; maximum session time of 1 hour,,,,,,,1,,Unknown,,200-9,39.13142,-84.51178,3/7/2019,66814,2019-05-14 21:16:45 UTC,P,,,5/1/15,,,,,CHADEMO J1772COMBO,US,,,,Public,,public,,,COLLEGE_CAMPUS,,,,,,,Free,,,,,,,,,
UN,ELEC,Western Illinois University - Spencer Recreation Center,1 University Cir,,Macomb,IL,61455,Public,24 hours daily,,,,,,1,,,Unknown,,200-8,40.462554,-90.681732,10/4/2018,66818,2019-05-14 21:16:45 UTC,P,,,4/16/15,,,,,J1772,US,,,,Public,,public,,,COLLEGE_CAMPUS,,,,,,,Free,,,,,,,,,
UN,ELEC,Universal Studios,6000 Universal Blvd,Located in Valet Parking,Orlando,FL,32819,Public - Call ahead,Park business hours; pay lot,,,,,,4,,,Unknown,,GPS,28.47399,-81.46228,6/6/2019,66856,2019-06-06 17:52:59 UTC,P,,,7/1/15,,,,,J1772 TESLA,US,,,,Public - Appeler à l'avance,,public,CALL,,OTHER_ENTERTAINMENT,,,,,,,,,,,,,,,,
UN,ELEC,Carl Miller Park,74 Sewell Rd,,Newnan,GA,30263,Public,8am-9pm daily,,,,,,1,,,Unknown,,200-8,33.359198,-84.803283,10/4/2018,66906,2019-05-14 21:16:45 UTC,LG,,,1/1/15,,,,,J1772,US,,,,Public,,public,,,PARK,,,,,,,Free,,,,,,,,,
O,ELEC,Aloha Stadium,99-500 Salt Lake Blvd,"Enter the main salt lake gate 1, turn right at sections 3D and 4D, make a right turn at 2A and proceed to park in the marked stall",Honolulu,HI,96818,Public,6am-12pm daily,,,,,,1,,,OpConnect,http://www.opconnect.com/,GPS,21.34645,-157.91968,5/9/2019,66910,2019-05-14 21:16:45 UTC,P,,,1/1/15,,,,,J1772,US,,,,Public,,public,,,STADIUM,,,,,,,Free,,,,,,,,,
UN,ELEC,Whaler's Village,2435 Kaanapali Pkwy,Located on the ground level of the main parking structure,Lahaina,HI,96761,Public,8am-10pm daily,,,,,,2,,,Unknown,,GPS,20.92083,-156.6942,5/3/2018,66913,2019-05-14 21:16:45 UTC,P,,,1/1/15,,,,,J1772,US,,,,Public,,public,,,SHOPPING_CENTER,,,,,,,Free; Maximum session time of 2 hours,,,,,,,,,
UN,ELEC,BMW of Maui,410 Koloa St,Located in the outside parking lot,Kahului,HI,96732,Public,24 hours daily,,,,,,1,,,Unknown,,GPS,20.88712,-156.4543,2/6/2019,66914,2019-05-14 21:16:45 UTC,P,,,1/1/15,,,,,J1772,US,,,,Public,,public,,,CAR_DEALER,,,,,,,Free,,,,,,,,,
UN,ELEC,BMW of Kona,74-5533 Loloku St,Located in the outside parking lot,Kailua-Kona,HI,96740,Public,24 hours daily,,,,,,1,,,Unknown,,GPS,19.64405,-156.00273,5/3/2018,66915,2019-05-14 21:16:45 UTC,P,,,1/1/15,,,,,J1772,US,,,,Public,,public,,,CAR_DEALER,,,,,,,Free,,,,,,,,,
UN,ELEC,Ala Moana Building,677 Ala Moana Blvd,Located by the 3rd floor elevator,Honolulu,HI,96813,Public,6am-6pm daily,,,,,,2,,,Unknown,,GPS,21.2974,-157.86209,5/3/2018,66916,2019-05-14 21:16:45 UTC,P,,,1/1/15,,,,,J1772,US,,,,Public,,public,,,PARKING_GARAGE,,,,,,,,,,,,,,,,
UN,ELEC,Honolulu Club Building,932 Ward,Basement by the elevator,Honolulu,HI,96814,Public,24 hours daily,,,,,,1,,,Unknown,,GPS,21.30176,-157.8509,5/3/2018,66917,2019-05-14 21:16:45 UTC,P,,,1/1/15,,,,,J1772,US,,,,Public,,public,,,PARKING_GARAGE,,,,,,,$2 per hour for first two hours; $4 per hour thereafter,,,,,,,,,
UN,ELEC,Bishop Square,1003 Bishop St,Located on the 10th floor,Honolulu,HI,96813,Public,24 hours daily,,,,,,1,,,Unknown,,GPS,21.30905,-157.86036,5/3/2018,66918,2019-05-14 21:16:45 UTC,P,,,1/1/15,,,,,J1772,US,,,,Public,,public,,,SHOPPING_CENTER,,,,,,,"$2 per hour for first 2 hours, $4 hour each additional hour",,,,,,,,,
UN,ELEC,Pacific Guardian Tower,1440 Kapiolani Blvd,Located by the entrance to the garage by the parking booth,Honolulu,HI,96814,Public,7am-6pm daily,,,,,,1,,,Unknown,,GPS,21.29361,-157.84262,5/3/2018,66919,2019-05-14 21:16:45 UTC,P,,,1/1/15,,,,,J1772,US,,,,Public,,public,,,PARKING_GARAGE,,,,,,,Free,,,,,,,,,
UN,ELEC,Pacific Park Plaza,711 Kapiolani Blvd,Curtis Street across from 711 Kapiolani. Located at the entrance of the garage on the right,Honolulu,HI,96813,Public,Store business hours,,,,,,1,,,Unknown,,GPS,21.30141,-157.85559,5/3/2018,66920,2019-05-14 21:16:45 UTC,P,,,1/1/15,,,,,J1772,US,,,,Public,,public,,,SHOPPING_CENTER,,,,,,,Free,,,,,,,,,
UN,ELEC,Hawaii Pacific Health - Pali Momi Medical Center,98-1079 Moanalua Rd,Located P1 level visitor parking,Aiea,HI,96701,Public,24 hours daily,,,,,,1,,,Unknown,,GPS,21.38328,-157.9386,5/3/2018,66921,2019-05-14 21:16:45 UTC,P,,,1/1/15,,,,,J1772,US,,,,Public,,public,,,HOSPITAL,,,,,,,Free,,,,,,,,,
UN,ELEC,Hawaii Pacific Health - Straub Clinic & Hospital,888 S King St,Located on the 2nd floor parking garage. First 2 stalls on the right when you turn on to the same level as the handicap stalls,Honolulu,HI,96813,Public,24 hours daily,,,,,,1,,,Unknown,,GPS,21.30258,-157.85054,5/3/2018,66923,2019-05-14 21:16:45 UTC,P,,,1/1/15,,,,,J1772,US,,,,Public,,public,,,HOSPITAL,,,,,,,$2 per hour,,,,,,,,,
UN,ELEC,Pacific Guardian Center,737 Bishop St,Located on the 2nd floor by the entrance,Honolulu,HI,96813,Public,7:30am-5pm daily,,,,,,1,,,Unknown,,GPS,21.30733,-157.86292,5/3/2018,66924,2019-05-14 21:16:45 UTC,P,,,1/1/15,,,,,J1772,US,,,,Public,,public,,,SHOPPING_CENTER,,,,,,,Free; Maximum session time of 2 hours,,,,,,,,,
UN,ELEC,Whole Foods Market,70 Kaahumanu Ave,Maui Mall,Kahului,HI,96732,Public,24 hours daily,,,,,,2,,,Unknown,,GPS,20.89105,-156.46519,5/3/2018,66925,2019-05-14 21:16:45 UTC,P,,,1/1/15,,,,,J1772,US,,,,Public,,public,,,GROCERY,,,,,,,Free,,,,,,,,,
UN,ELEC,Castle Medical Center,640 Ulukahiki St,Located in the front by the bus stop,Kailua,HI,96734,Public,24 hours daily,,,,,,2,,,Unknown,,GPS,21.38108,-157.75765,5/3/2018,66926,2019-05-14 21:16:45 UTC,P,,,1/1/15,,,,,J1772,US,,,,Public,,public,,,HOSPITAL,,,,,,,Free,,,,,,,,,
UN,ELEC,Home Depot,4320 Nuhou St,Located in the first stall in front of store,Lihue,HI,96766,Public,Store business hours,,,,,,1,,,Unknown,,GPS,21.96832,-159.38206,5/3/2018,66927,2019-05-14 21:16:45 UTC,P,,,1/1/15,,,,,J1772,US,,,,Public,,public,,,SHOPPING_CENTER,,,,,,,Free,,,,,,,,,
UN,ELEC,Maui Brewing Co,605 Lipoa Pkwy,Located in stalls marked for EVs,Kihei,HI,96753,Public,11am-10:30pm daily,,,,,,4,,,Unknown,,GPS,20.74952,-156.43735,5/3/2018,66928,2019-05-14 21:16:45 UTC,P,,,1/1/15,,,,,J1772,US,,,,Public,,public,,,RESTAURANT,,,,,,,$1 per hour for first 2 hours; $5 per hour thereafter,,,,,,,,,
UN,ELEC,Maui Marketplace,270 Dairy Rd,In front of Starbucks and Jamba Juice with stalls facing Dairy Road and Down to Earth across road.,Kahului,HI,96732,Public,24 hours daily,,,,,,2,,,Unknown,,GPS,20.88157,-156.45471,5/3/2018,66929,2019-05-14 21:16:45 UTC,P,,,1/1/15,,,,,J1772,US,,,,Public,,public,,,SHOPPING_CENTER,,,,,,,$0.42 per kWh,,,,,,,,,
UN,ELEC,The Majestic Yosemite Hotel,1 Ahwahnee Dr,,Yosemite Valley,CA,95386,Public,24 hours daily,,,,,,1,,,Unknown,,GPS,37.745956,-119.574336,12/11/2018,66931,2019-05-14 21:16:45 UTC,SG,,,6/13/16,,,,,J1772,US,,,,Public,,public,,,HOTEL,,,,,,,Free,,,,,,,,,
UN,ELEC,DeKalb Peachtree Airport,2000 Airport Rd,,Atlanta,GA,30341,Public - Call ahead,24 hours daily; call ahead to obtain code to use the charger,,,,,,2,,,Unknown,,200-9,33.874961,-84.301305,10/4/2018,67099,2019-05-14 21:16:45 UTC,P,,,1/16/17,,,,,J1772,US,,,,Public - Appeler à l'avance,,public,CALL,,AIRPORT,,,,,,,Free,,,,,,,,,
UN,ELEC,City of Americus - Welcome Center,101 W Lamar St,,Americus,GA,31709,Public,24 hours daily,,,,,,1,,,Unknown,,200-8,32.072192,-84.232577,10/4/2018,67101,2019-05-14 21:16:45 UTC,LG,,,5/1/15,,,,,J1772,US,,,,Public,,public,,,MUNI_GOV,,,,,,,Free,,,,,,,,,
UN,ELEC,The Co-Op Farm and Garden,216 E Washington St,,Sequim,WA,98382,Public,"8am-6pm M-F, 9am-5pm Sat, 10am-4pm Sun",,,,,,1,,,Unknown,,200-9,48.079897,-123.098996,11/8/2018,67125,2019-06-27 21:02:08 UTC,P,,,1/1/15,,,,,J1772,US,,,,Public,,public,,,COOP,,,,,,,Free,,,,,,,,,
UN,ELEC,Concord Regional Airport - Hourly Parking Lot,9000 Aviation Blvd,,Concord,NC,28027,Public,24 hours daily,,,,,,2,,,Unknown,,200-9,35.387187,-80.710369,8/7/2018,67127,2019-05-14 21:16:45 UTC,LG,,,1/1/15,,,,,J1772,US,,,,Public,,public,,,AIRPORT,,,,,,,Free,,,,,,,,,
UN,ELEC,McKay Solar,104 W McKay St,,Saline,MI,48176,Public,24 hours daily,,,,,1,1,,,Unknown,,GPS,42.167338,-83.782904,7/9/2019,67129,2019-07-09 17:26:18 UTC,P,,,4/1/15,,,,,J1772 NEMA520,US,,,,Public,,public,,,STREET_PARKING,,,,,,,Free,,,,,,,,,SOLAR
UN,ELEC,The Inn on Pamilco Sound,49684 NC Highway 12,,Buxton,NC,27920,Public - Call ahead,8am-9pm daily; Inn and Cafe Pamlico guest use only; see front desk for access,,,,,,1,,,Unknown,,200-9,35.263044,-75.569596,10/4/2018,67130,2019-01-17 00:33:46 UTC,P,,,5/1/15,,,,,J1772,US,,,,Public - Appeler à l'avance,,public,CALL,,INN,,,,,,,Free,,,,,,,,,
UN,ELEC,Gun Lake Casino,1123 129th Ave,,Wayland,MI,49348,Public,24 hours daily; see valet for access,,,,,,2,,,Unknown,,200-9,42.631645,-85.655605,7/9/2019,67131,2019-07-09 17:26:18 UTC,P,,,1/1/18,,,,,J1772,US,,,,Public,,public,,,OTHER_ENTERTAINMENT,,,,,,,,,,,,,,,,
UN,ELEC,Sebasco Harbor Resort,29 Kenyon Rd,,Phippsburg,ME,4562,Public - Call ahead,24 hours daily; for guest use only,,,,,,1,,,Unknown,,GPS,43.766889,-69.861111,3/8/2018,67132,2019-05-14 21:16:45 UTC,P,,,5/15/15,,,,,J1772,US,,,,Public - Appeler à l'avance,,public,CALL,,HOTEL,,,,,,,Free,,,,,,,,,
UN,ELEC,Anne's Country Convenience Store,1190 Route 12A,,Plainfield,NH,3781,Public,"6am-8pm M-Sat, 7am-7pm Sun",,,,,,1,,,Unknown,,200-9,43.529749,-72.361177,12/11/2018,67133,2019-05-14 21:16:45 UTC,P,,,4/29/15,,,,,J1772,US,,,,Public,,public,,,CONVENIENCE_STORE,,,,,,,Free,,,,,,,,,
UN,ELEC,Depot Inn and Suites,1245 N Brown St,Highway 63 at Missouri Route D,La Plata,MO,63549,Public,24 hours daily,,,,,,1,,,Unknown,,GPS,40.034387,-92.489816,12/11/2018,67135,2019-05-14 21:16:45 UTC,P,,,4/24/15,,,,,J1772,US,,,,Public,,public,,,HOTEL,,,,,,,Free,,,,,,,,,
UN,ELEC,Parkview Business Center,201 Prospect Ave,,Hagerstown,MD,21742,Public,24 hours daily,,,,,,1,,,Unknown,,200-9,39.653196,-77.715865,11/8/2018,67146,2019-05-14 21:16:45 UTC,P,,,5/7/15,,,,,J1772,US,,,,Public,,public,,,OFFICE_BLDG,,,,,,,Free,,,,,,,,,
UN,ELEC,Cincinnati Zoo,3400 Vine St,,Cincinnati,OH,45220,Public,Zoo business hours; pay lot,,,,,,6,1,,Unknown,,200-9,39.143249,-84.508184,3/7/2019,67156,2019-05-14 21:16:45 UTC,LG,,,4/1/15,,,,,CHADEMO J1772 J1772COMBO,US,,,,Public,,public,,,OTHER_ENTERTAINMENT,,,,,,,Free,,,,,,,,,SOLAR
UN,ELEC,Red Bank Municipal Court,90 Monmouth St,Located at a parking meter,Red Bank,NJ,7701,Public,24 hours daily,,,,,,1,,,Unknown,,200-9,40.349613,-74.070044,7/9/2018,67190,2019-05-14 21:16:45 UTC,LG,,,4/1/15,,,,,J1772,US,,,,Public,,public,,,STREET_PARKING,,,,,,,Free,,,,,,,,,
UN,ELEC,Brewster House Bed & Breakfast,180 Main St,,Freeport,ME,4032,Public - Call ahead,24 hours daily; priority for guest use,,,,,,1,,,Unknown,,GPS,43.861709,-70.100197,3/7/2019,67237,2019-05-14 21:16:45 UTC,P,,,5/1/15,,,,,J1772,US,,,,Public - Appeler à l'avance,,public,CALL,,B_AND_B,,,,,,,$5 per session for guests; $10 per session for non-guests,,,,,,,,,
UN,ELEC,Newcastle Inn,60 River Rd,,Newcastle,ME,4553,Public - Call ahead,8am-8pm daily; free for guests,,,,,,1,,,Unknown,,GPS,44.030925,-69.542575,3/7/2019,67238,2019-03-07 18:17:18 UTC,P,,,5/1/15,,,,,J1772,US,,,,Public - Appeler à l'avance,,public,CALL,,INN,,,,,,,$5 per session for non-guests,,,,,,,,,
UN,ELEC,Swift House Inn,25 Steward Ln,,Middlebury,VT,5753,Public - Call ahead,24 hours daily; for guest use only,,,,,,1,,,Unknown,,200-9,44.018421,-73.165229,12/11/2018,67247,2019-01-17 00:33:46 UTC,P,,,5/1/15,,,,,J1772,US,,,,Public - Appeler à l'avance,,public,CALL,,INN,,,,,,,Free,,,,,,,,,
UN,ELEC,Maple Leaf Inn,5890 Highway 12,,Bethel,VT,5032,Public - Call ahead,24 hours daily; for guest use only,,,,,,1,,,Unknown,,GPS,43.724622,-72.6158105,12/11/2018,67248,2019-01-17 00:33:46 UTC,P,,,5/1/15,,,,,J1772,US,,,,Public - Appeler à l'avance,,public,CALL,,INN,,,,,,,Free,,,,,,,,,
UN,ELEC,Blue Heron French Cheese Co,2001 Blue Heron Rd,,Tillamook,OR,97141,Public,24 hours daily,,,,,,1,,,Unknown,,200-9,45.467253,-123.843009,3/7/2019,67258,2019-05-14 21:16:45 UTC,P,,,3/1/15,,,,,J1772,US,,,,Public,,public,,,RESTAURANT,,,,,,,Free,,,,,,,,,
UN,ELEC,Stephanie Inn,2740 Pacific Ave,,Cannon Beach,OR,97145,Public - Call ahead,24 hours daily; for guest use only,,,,,,2,,,Unknown,,200-9,45.877155,-123.961875,3/7/2019,67266,2019-05-14 21:16:45 UTC,P,,,3/1/15,,,,,J1772,US,,,,Public - Appeler à l'avance,,public,CALL,,HOTEL,,,,,,,Free,,,,,,,,,
UN,ELEC,Tetherow Lodge and Golf Course,61238 Skyline Ranch Rd,,Bend,OR,97702,Public - Call ahead,24 hours daily; for guest use only,,,,,,1,,,Unknown,,200-8,44.024463,-121.366563,4/8/2019,67269,2019-05-14 21:16:45 UTC,P,,,5/1/15,,,,,J1772,US,,,,Public - Appeler à l'avance,,public,CALL,,HOTEL,,,,,,,,,,,,,,,,
UN,ELEC,Westgate Vacation Villas Resort & Spa,7700 Westgate Blvd,Located behind the bar and grill,Kissimmee,FL,34747,Public,24 hours daily; guest use only,,,,,,2,,,Unknown,,200-8,28.329043,-81.597278,6/6/2019,67290,2019-06-06 17:52:59 UTC,LG,,,1/1/15,,,,,J1772,US,,,,Public,,public,,,HOTEL,,,,,,,$0.50 per kWh,,,,,,,,,
UN,ELEC,Embry-Riddle Aeronautical University,600 S Clyde Morris Blvd,Located behind the engineering building,Daytona Beach,FL,32114,Public,24 hours daily,,,,,,2,,,Unknown,,200-8,29.19003,-81.046837,6/6/2019,67291,2019-06-06 17:52:59 UTC,P,,,1/1/15,,,,,J1772,US,,,,Public,,public,,,COLLEGE_CAMPUS,,,,,,,Free,,,,,,,,,
UN,ELEC,Sandpearl Resort,500 Mandalay Ave,,Clearwater Beach,FL,33767,Public,24 hours daily; for guest use only; see valet for access,,,,,,2,,,Unknown,,GPS,27.9827858,-82.8273019,6/6/2019,67293,2019-06-06 17:52:59 UTC,P,,,1/1/15,,,,,J1772,US,,,,Public,,public,,,HOTEL,,,,,,,$25 parking fee for non-guests,,,,,,,,,
UN,ELEC,Whole Foods Market,27001 US Highway 19 N,,Clearwater,FL,33761,Public,24 hours daily,,,,,,2,,,Unknown,,200-9,28.017407,-82.737485,6/6/2019,67294,2019-06-06 17:52:59 UTC,P,,,1/1/15,,,,,J1772,US,,,,Public,,public,,,GROCERY,,,,,,,Free,,,,,,,,,
UN,ELEC,Pinellas County Courthouse,315 Court St,Located in the west parking lot,Clearwater,FL,33756,Public,24 hours daily,,,,,,2,,,Unknown,,200-9,27.961653,-82.800841,6/6/2019,67296,2019-06-06 17:52:59 UTC,LG,,,1/1/15,,,,,J1772,US,,,,Public,,public,,,MUNI_GOV,,,,,,,Free,,,,,,,,,
UN,ELEC,Vinoy Renaissance,501 5th Ave NE,,St. Petersburg,FL,33701,Public,24 hours daily; for guest use only,,,,,,2,,,Unknown,,GPS,27.7781601,-82.632299,6/6/2019,67297,2019-06-06 17:52:59 UTC,P,,,1/15/18,,,,,J1772,US,,,,Public,,public,,,HOTEL,,,,,,,Free,,,,,,,,,
UN,ELEC,Los Angeles County Sheriff - La Crescenta Station,4554 Briggs Ave,,La Crescenta,CA,91214,Public,"24 hours daily; keypad activated, instructions on EVSE",,,,,,1,,,Unknown,,200-9,34.220972,-118.230266,9/10/2018,67302,2019-05-20 17:54:29 UTC,LG,,,7/1/16,,,,,J1772,US,,,,Public,,public,,,MUNI_GOV,,,,,,,Free,,,,,,,,,
UN,ELEC,Los Angeles County - Mid-Valley Comprehensive Health Center,7515 Van Nuys Blvd,Parking structure ground floor,Van Nuys,CA,91405,Public,"6am-6pm M-F; keypad activated, instructions on EVSE",,,,,,5,2,,Unknown,,200-9,34.207129,-118.44959,9/10/2018,67306,2019-05-20 17:54:29 UTC,LG,,,4/1/15,,,,,CHADEMO J1772,US,,,,Public,,public,,,PARKING_GARAGE,,,,,,,Free,,,,,,,,,
O,ELEC,Department of Children & Family Services,8300 S Vermont Ave,Located in the parking structure,Los Angeles,CA,90044,Public,"6am-6pm M-F; keypad activated, instructions on EVSE",,,,,,40,,,EV Connect,http://evconnect.com/,200-9,33.96346,-118.291076,9/10/2018,67308,2019-05-14 21:16:45 UTC,LG,,,8/1/18,,,,,J1772,US,,,,Public,,public,,,MUNI_GOV,,,,,,,Free,,,,,,,,,
UN,ELEC,Michigan Library and Historical Center,702 W Kalamazoo St,,Lansing,MI,48933,Public,24 hours daily,,,,,,1,,,Unknown,,200-9,42.731319,-84.562378,7/9/2019,67316,2019-07-09 17:26:18 UTC,SG,,,3/26/15,,,,,J1772,US,,,,Public,,public,,,MUSEUM,,,,,,,,,,,,,,,,
UN,ELEC,Town of Kremmling - Town Park,203 Park Ave,,Kremmling,CO,80459,Public,24 hours daily,,,,,,1,,,Unknown,,200-9,40.059492,-106.392923,11/8/2018,67343,2019-05-14 21:16:45 UTC,LG,,,5/18/15,,,,,J1772,US,,,,Public,,public,,,PARK,,,,,,,Free,,,,,,,,,
UN,ELEC,Terra Savia Winery,14160 Mountain House Rd,,Hopland,CA,95449,Public,9am-5pm daily,,,,,,1,,,Unknown,,GPS,38.959988,-123.115634,12/11/2018,67344,2019-05-14 21:16:45 UTC,P,,,5/1/15,,,,,J1772,US,,,,Public,,public,,,BREWERY_DISTILLERY_WINERY,,,,,,,,,,,,,,,,
UN,ELEC,Whole Foods Market,401 S Broadway Ave,,Boise,ID,83702,Public,24 hours daily; for customer use only,,,,,,1,,,Unknown,,200-9,43.607216,-116.194051,3/7/2019,67347,2019-05-14 21:16:45 UTC,P,,,5/1/15,,,,,J1772,US,,,,Public,,public,,,GROCERY,,,,,,,Free,,,,,,,,,
UN,ELEC,Northern Arapaho Tribal Industries,98 Gas Hill Rd,,Riverton,WY,82501,Public,24 hours daily,,,,,,2,,,Unknown,,GPS,42.994756,-108.370846,4/8/2019,67348,2019-05-14 21:16:45 UTC,LG,,,5/1/15,,,,,J1772 TESLA,US,,,,Public,,public,,,OFFICE_BLDG,,,,,,,Free,,,,,,,,,
UN,ELEC,Greater Portland Council of Governments,970 Baxter Blvd,,Portland,ME,4101,Public,24 hours daily,,,,,,2,,,Unknown,,GPS,43.679417,-70.257818,3/7/2019,67350,2019-05-14 21:16:45 UTC,LG,,,4/1/15,,,,,J1772,US,,,,Public,,public,,,MUNI_GOV,,,,,,,Free,,,,,,,,,
UN,ELEC,Prince George - Parking Garage,230 N Henry St,Prince George St and N Henry St,Williamsburg,VA,23185,Public,24 hours daily,,,,,,2,,,Unknown,,GPS,37.272891,-76.70634,12/11/2018,67359,2019-05-14 21:16:45 UTC,LG,,,6/1/15,,,,,J1772,US,,,,Public,,public,,,PAY_GARAGE,,,,,,,Free,,,,,,,,,
UN,ELEC,Hotel Julien,200 Main St,,Dubuque,IA,52001,Public - Call ahead,24 hours daily; see front desk for access,,,,,,1,,,Unknown,,200-9,42.496357,-90.664337,4/8/2019,67714,2019-05-14 21:16:45 UTC,P,,,4/1/15,,,,,J1772,US,,,,Public - Appeler à l'avance,,public,CALL,,HOTEL,,,,,,,,,,,,,,,,
UN,ELEC,Suds Hut Famous Chicken & Casino,2701 N Montana Ave,,Helena,MT,59601,Public,24 hours daily,,,,,,1,,,Unknown,,200-9,46.611562,-112.020382,4/8/2019,67737,2019-05-14 21:16:45 UTC,P,,,4/1/15,,,,,J1772,US,,,,Public,,public,,,RESTAURANT,,,,,,,,,,,,,,,,
UN,ELEC,Mirbeau Inn & Spa,851 W Genesee Street Rd,,Skaneateles,NY,13152,Public - Call ahead,24 hours daily; for guest use only; see front desk for access,,,,,,1,,,Unknown,,200-9,42.944626,-76.443793,4/8/2019,67743,2019-05-14 21:16:45 UTC,P,,,3/1/15,,,,,J1772,US,,,,Public - Appeler à l'avance,,public,CALL,,HOTEL,,,,,,,,,,,,,,,,
UN,ELEC,ScottTech,336 Court St,,Binghamton,NY,13904,Public,24 hours daily,,,,,,1,,,Unknown,,200-9,42.103472,-75.892293,4/8/2019,67753,2019-05-14 21:16:45 UTC,P,,,4/1/15,,,,,J1772,US,,,,Public,,public,,,OFFICE_BLDG,,,,,,,,,,,,,,,,
UN,ELEC,The Point Resort,222 Beaverwood Rd,,Saranac Lake,NY,12983,Public - Call ahead,24 hours daily; for guest use only; see front desk for access,,,,,,1,,,Unknown,,200-9,44.303141,-74.330399,4/8/2019,67755,2019-05-14 21:16:45 UTC,P,,,3/1/15,,,,,J1772,US,,,,Public - Appeler à l'avance,,public,CALL,,HOTEL,,,,,,,,,,,,,,,,
UN,ELEC,Mount Airy Municipal Parking Lot,255-299 Cross St,Park Ave & Cross St,Mt. Airy,MD,21771,Public,24 hours daily,,,,,,2,,,Unknown,,GPS,39.375025,-77.154549,6/6/2019,67759,2019-06-06 17:52:59 UTC,LG,,,4/1/15,,,,,J1772,US,,,,Public,,public,,,PARKING_LOT,,,,,,,Free,,,,,,,,,
UN,ELEC,Solar Energy International,39845 Mathews Ln,,Paonia,CO,81428,Public,24 hours daily,,,,,,1,,,Unknown,,200-9,38.855424,-107.614795,12/11/2018,67763,2019-05-14 21:16:45 UTC,P,,,6/1/15,,,,,J1772,US,,,,Public,,public,,,OFFICE_BLDG,,,,,,,Free,,,,,,,,,SOLAR
UN,ELEC,Whole Foods Market,4520 N Sepulveda Blvd,,Los Angeles,CA,91403,Public,7am-10pm daily; free for customer use only; maximum stay of 2 hours,,,,,,3,,,Unknown,,GPS,34.15182206,-118.4666912,2/6/2019,67788,2019-05-14 21:16:45 UTC,P,,,5/1/15,,,,,J1772,US,,,,Public,,public,,,GROCERY,,,,,,,Free,,,,,,,,,
UN,ELEC,Pappas Bros,5839 Westheimer Rd,,Houston,TX,77057,Public,24 hours daily,,,,,,1,,,Unknown,,GPS,29.73726,-95.48137,6/6/2019,67847,2019-06-06 17:52:59 UTC,P,,,4/1/15,,,,,J1772,US,,,,Public,,public,,,RESTAURANT,,,,,,,Free,,,,,,,,,
UN,ELEC,Walgreens,375 E Dundee Rd,,Palatine,IL,60067,Public,24 hours daily,,,,,,3,,,Unknown,,GPS,42.13892,-88.034652,10/4/2018,67868,2019-05-14 21:16:45 UTC,P,,,4/1/15,,,,,J1772,US,,,,Public,,public,,,PHARMACY,,,,,,,Free,,,,,,,,,
UN,ELEC,Park 'N Fly,160 Produce Ave S,,San Francisco,CA,94080,Public,24 hours daily; must valet park,,,,,2,,,,Unknown,,GPS,37.647798,-122.407022,5/9/2019,67924,2019-05-14 21:16:45 UTC,P,,,4/1/15,,,,,NEMA515,US,,,,Public,,public,,,PAY_GARAGE,,,,,,,$5 per session,,,,,,,,,
UN,ELEC,Fort Collins South Transit Station,4915 Fossil Blvd,At South Transit station for Maxx,Fort Collins,CO,80525,Public - Credit card at all times,24 hours daily,M V,,,,,2,,,Unknown,,200-9,40.518789,-105.080094,11/8/2018,67959,2019-05-14 21:16:45 UTC,LG,,,6/1/15,,,,,J1772,US,,,,Public - Carte de crédit en tout temps,,public,CREDIT_CARD_ALWAYS,,TRAVEL_CENTER,,,,,,,$1 per hour,,,,,,,,,
UN,ELEC,Mulberry Pool,424 W Mulberry Ave,West and adjacent to Lincoln Center,Fort Collins,CO,80521,Public - Credit card at all times,24 hours daily,M V,,,,,2,,,Unknown,,GPS,40.58194721,-105.0840199,11/8/2018,67960,2019-05-14 21:16:45 UTC,LG,,,6/1/15,,,,,J1772,US,,,,Public - Carte de crédit en tout temps,,public,CREDIT_CARD_ALWAYS,,REC_SPORTS_FACILITY,,,,,,,$1 per hour,,,,,,,,,
UN,ELEC,Eldora Pool and Ice Center,1801 Riverside Ave,Prospect and Riverside,Fort Collins,CO,80525,Public - Credit card at all times,24 hours daily,M V,,,,,2,,,Unknown,,200-9,40.563357,-105.046674,11/8/2018,67961,2019-05-14 21:16:45 UTC,LG,,,6/1/15,,,,,J1772,US,,,,Public - Carte de crédit en tout temps,,public,CREDIT_CARD_ALWAYS,,REC_SPORTS_FACILITY,,,,,,,$1 per hour,,,,,,,,,
UN,ELEC,Newnan Utilities,315 Millard Farmer Industrial Blvd,Millard Farmer Industrial Blvd & Hillwood Cir,Newnan,GA,30263,Public,8am-5pm M-F,,,,,,2,,,Unknown,,GPS,33.40016,-84.78589,10/4/2018,68000,2019-05-14 21:16:45 UTC,T,,,6/1/15,,,,,J1772,US,,,,Public,,public,,,UTILITY,,,,,,,Free,,,,,,,,,
UN,ELEC,R Street Parking Plaza,1515 R St,Located on the 4th floor by the catwalk,Sacramento,CA,95811,Public,24 hours daily,,,,,,2,,,Unknown,,200-8,38.569559,-121.490128,11/8/2018,68001,2019-05-14 21:16:45 UTC,P,,,6/16/15,,,,,J1772,US,,,,Public,,public,,,PAY_GARAGE,,,,,,,Free,,,,,,,,,
UN,ELEC,Ocean Walk Hotel,194 E Grand Ave,,Old Orchard Beach,ME,4604,Public - Call ahead,24 hours daily; free for hotel guest use only; for public use in emergency only,,,,,,1,,,Unknown,,GPS,43.530822,-70.361456,3/7/2019,68002,2019-05-14 21:16:45 UTC,P,,,6/1/15,,,,,J1772,US,,,,Public - Appeler à l'avance,,public,CALL,,HOTEL,,,,,,,Free,,,,,,,,,
UN,ELEC,Wilson College Science Center,1015 Philadelphia Ave,Located in Lot I,Chambersburg,PA,17201,Public,24 hours daily; please move vehicle after charging; for student and faculty use only,,,,,,1,,,Unknown,,200-8,39.947785,-77.652777,9/10/2018,68007,2019-05-14 21:16:45 UTC,P,,,4/1/15,,,,,J1772,US,,,,Public,,public,,,COLLEGE_CAMPUS,,,,,,,Free,,,,,,,,,
UN,ELEC,Element Hotel,925 19th Ave E,,West Fargo,ND,58078,Public - Call ahead,24 hours daily; for guest use only; see front desk for access,,,,,,1,,,Unknown,,200-9,46.850311,-96.882167,6/6/2019,68008,2019-06-06 17:52:59 UTC,P,,,5/1/15,,,,,J1772,US,,,,Public - Appeler à l'avance,,public,CALL,,HOTEL,,,,,,,Free,,,,,,,,,
UN,ELEC,Surfside Park,Surfside Pl,Located on Surfside Pl at the intersection of Lake Ave,Rehoboth Beach,DE,19971,Public,24 hours daily; pay lot,,,,,,2,,,Unknown,,GPS,38.722095,-75.077899,12/11/2018,68009,2019-05-14 21:16:45 UTC,LG,,,6/18/15,,,,,J1772,US,,,,Public,,public,,,PAY_LOT,,,,,,,Free,,,,,,,,,
UN,ELEC,Grappone Ford,530 New Hampshire 3A,,Bow,NH,3304,Public - Call ahead,Dealership business hours,,,,,,2,,,Unknown,,200-8,43.169099,-71.524692,2/6/2019,68010,2019-05-14 21:16:45 UTC,P,,,5/1/15,,,,,J1772,US,,,,Public - Appeler à l'avance,,public,CALL,,CAR_DEALER,,,,,,,Free,,,,,,,,,
UN,ELEC,Chesterfield Inn,20 Cross Rd,,West Chesterfield,NH,3466,Public - Call ahead,24 hours daily; for guest use only,,,,,,1,,,Unknown,,200-9,42.897153,-72.522322,12/11/2018,68011,2019-01-17 00:33:46 UTC,P,,,5/1/15,,,,,J1772,US,,,,Public - Appeler à l'avance,,public,CALL,,INN,,,,,,,,,,,,,,,,
UN,ELEC,Monadnock Ford,119 Monadnock Hwy,,Swanzey,NH,3446,Public - Call ahead,Dealership business hours,,,,,,1,,,Unknown,,200-8,42.904316,-72.25643,7/9/2019,68012,2019-07-09 17:26:18 UTC,P,,,5/1/15,,,,,J1772,US,,,,Public - Appeler à l'avance,,public,CALL,,CAR_DEALER,,,,,,,Free,,,,,,,,,
UN,ELEC,Ford of Londonderry,33 Nashua Rd,,Londonderry,NH,3053,Public - Call ahead,Dealership business hours; for Ford vehicles only,,,,,,1,,,Unknown,,200-8,42.865513,-71.348169,7/9/2019,68013,2019-07-09 17:26:18 UTC,P,,,7/1/15,,,,,J1772,US,,,,Public - Appeler à l'avance,,public,CALL,,CAR_DEALER,,,,,,,Free,,,,,,,,,
UN,ELEC,Red Hawk Casino,1 Red Hawk Pkwy,,Placerville,CA,95667,Public,24 hours daily,,,,,,10,,,Unknown,,GPS,38.69494,-120.906682,5/3/2018,68151,2019-05-14 21:16:45 UTC,P,,,4/1/15,,,,,J1772,US,,,,Public,,public,,,OTHER_ENTERTAINMENT,,,,,,,Free,,,,,,,,,
UN,ELEC,El Dorado County Government Center,1360 Johnson Blvd,,South Lake Tahoe,CA,96150,Public,24 hours daily,,,,,,4,,,Unknown,,200-9,38.933046,-119.971569,5/3/2018,68152,2019-05-14 21:16:45 UTC,LG,,,4/1/15,,,,,J1772,US,,,,Public,,public,,,MUNI_GOV,,,,,,,Free,,,,,,,,,
UN,ELEC,El Dorado County Government Center,330 Fair Ln,Located at building B,Placerville,CA,95667,Public,24 hours daily,,,,,,12,,,Unknown,,200-9,38.727588,-120.827025,5/3/2018,68153,2019-05-14 21:16:45 UTC,LG,,,4/1/15,,,,,J1772,US,,,,Public,,public,,,MUNI_GOV,,,,,,,Free,,,,,,,,,
UN,ELEC,Town of Winter Park - Parking Garage,50 Vasquez Rd,Located on lower level of parking garage,Winter Park,CO,80482,Public,24 hours daily,,,,,,2,,,Unknown,,200-9,39.917213,-105.785621,11/8/2018,68191,2019-05-14 21:16:45 UTC,LG,,,7/1/15,,,,,J1772,US,,,,Public,,public,,,PARKING_GARAGE,,,,,,,Free,,,,,,,,,
UN,ELEC,Beach Ready Auto,8863 Caratoke Hwy,,Point Harbor,NC,27964,Public,24 hours daily,,,,,,1,,,Unknown,,200-9,36.093125,-75.808695,7/9/2018,68269,2019-05-14 21:16:45 UTC,P,,,6/29/15,,,,,J1772,US,,,,Public,,public,,,AUTO_REPAIR,,,,,,,Free,,,,,,,,,
UN,ELEC,City of Derby - Aviator Church,200 W Greenway,Located at Greenway and K-15,Derby,KS,67037,Public,24 hours daily,,,,,,1,,,Unknown,,GPS,37.557132,-97.27296,8/7/2018,68270,2019-05-14 21:16:45 UTC,P,,,6/28/15,,,,,J1772,US,,,,Public,,public,,,PLACE_OF_WORSHIP,,,,,,,Free,,,,,,,,,
UN,ELEC,Gillum House Bed & Breakfast,35 Walnut St,,Shinnston,WV,26431,Public - Call ahead,24 hours daily; free for guest use,,,,,,1,,,Unknown,,200-9,39.39605,-80.302089,11/8/2018,68271,2019-05-14 21:16:45 UTC,P,,,5/1/15,,,,,J1772,US,,,,Public - Appeler à l'avance,,public,CALL,,B_AND_B,,,,,,,Free for guests; $15 per session for non-guests,,,,,,,,,
UN,ELEC,North Fork Mountain Inn,235 Canyon View Ln,,Cabins,WV,26855,Public - Call ahead,24 hours daily; guest use only; see front desk for access,,,,,,1,,,Unknown,,GPS,38.9035488,-79.2661629,11/8/2018,68272,2019-01-17 00:33:46 UTC,P,,,5/1/15,,,,,J1772,US,,,,Public - Appeler à l'avance,,public,CALL,,INN,,,,,,,Free for guests; $15 per session for non-guests,,,,,,,,,
UN,ELEC,Oglebay Resort,465 Lodge Dr,,Wheeling,WV,26003,Public,24 hours daily; for guest use only; see front desk for access,,,,,,1,,,Unknown,,200-8,40.098054,-80.659085,10/4/2018,68273,2019-07-26 13:42:39 UTC,P,,,5/1/15,,,,,J1772,US,,,,Public,,public,,,HOTEL,,,,,,,,,,,,,,,,
UN,ELEC,The Greenbrier,300 W Main St,,White Sulphur Springs,WV,24986,Public,24 hours daily; guest use only; see valet for access,,,,,,6,,,Unknown,,200-9,37.791409,-80.302728,11/8/2018,68274,2019-05-14 21:16:45 UTC,P,,,5/1/15,,,,,J1772,US,,,,Public,,public,,,HOTEL,,,,,,,,,,,,,,,,
UN,ELEC,Moody Gardens,7 Hope Blvd,,Galveston,TX,77557,Public,24 hours daily; guest use only; see valet for access,,,,,,1,,,Unknown,,200-9,29.272693,-94.850995,6/6/2019,68275,2019-06-06 17:52:59 UTC,P,,,5/1/15,,,,,J1772,US,,,,Public,,public,,,HOTEL,,,,,,,Free,,,,,,,,,
UN,ELEC,First United Evangelical and Reformed Church,6115 O'Donnell St,,Baltimore,MD,21224,Public - Call ahead,8am-5pm daily,,,,,,1,,,Unknown,,200-9,39.281321,-76.542569,5/9/2019,68278,2019-05-14 21:16:45 UTC,P,,,7/2/15,,,,,J1772,US,,,,Public - Appeler à l'avance,,public,CALL,,STANDALONE_STATION,,,,,,,Free,,,,,,,,,
UN,ELEC,Publix #1453,2222 South Blvd,Located in the parking garage P-2 on the back left corner by stairwell.,Charlotte,NC,28203,Public,Store business hours; for customer use only,,,,,,1,,,Unknown,,GPS,35.208237,-80.86254,5/9/2019,68384,2019-05-14 21:16:45 UTC,P,,,4/18/15,,,,,J1772,US,,,,Public,,public,,,GROCERY,,,,,,,Free,,,,,,,,,
UN,ELEC,Best Western Plus - Yosemite Gateway Inn,40530 Highway 41,,Oakhurst,CA,93644,Public - Call ahead,24 hours daily; for guest use only,,,,,,2,,,Unknown,,200-9,37.335923,-119.646151,5/9/2019,68388,2019-05-14 21:16:45 UTC,P,,,4/1/15,,,,,J1772,US,,,,Public - Appeler à l'avance,,public,CALL,,HOTEL,,,,,,,$5 per session for non-guests,,,,,,,,,
UN,ELEC,Merced Toyota,1400 Auto Center Dr,,Merced,CA,95340,Public - Call ahead,Dealership business hours,,,,,,1,,,Unknown,,200-8,37.305111,-120.501925,3/7/2019,68390,2019-05-14 21:16:45 UTC,P,,,4/1/15,,,,,J1772,US,,,,Public - Appeler à l'avance,,public,CALL,,CAR_DEALER,,,,,,,Free,,,,,,,,,
UN,ELEC,Razzari Nissan,1234 Auto Center Dr,Located at Nissan service department,Merced,CA,95340,Public - Call ahead,Dealership business hours; free for customers,,,,,,1,,,Unknown,,200-9,37.30496,-120.502841,3/7/2019,68391,2019-05-14 21:16:45 UTC,P,,,4/1/15,,,,,J1772,US,,,,Public - Appeler à l'avance,,public,CALL,,CAR_DEALER,,,,,,,,,,,,,,,,
UN,ELEC,Delicato Family Vineyards,12001 S Highway 99,,Manteca,CA,95336,Public,9am-5pm daily; for guest use only; maximum session time of one hour; see front desk for access,,,,,,2,,,Unknown,,200-9,37.85495,-121.220395,3/7/2019,68392,2019-05-14 21:16:45 UTC,P,,,4/1/15,,,,,J1772,US,,,,Public,,public,,,BREWERY_DISTILLERY_WINERY,,,,,,,Free,,,,,,,,,
UN,ELEC,San Joaquin County Office of Education,2707 Transworld Dr,,Stockton,CA,95206,Public - Call ahead,8am-5pm M-F; see front desk for access,,,,,,2,,,Unknown,,200-9,37.909462,-121.2324,5/9/2019,68395,2019-05-14 21:16:45 UTC,SG,,,4/1/15,,,,,J1772,US,,,,Public - Appeler à l'avance,,public,CALL,,STATE_GOV,,,,,,,,,,,,,,,,SOLAR
UN,ELEC,San Joaquin County Office of Education,2922 Transworld Dr,,Stockton,CA,95206,Public - Call ahead,8am-5pm M-F; see front desk for access,,,,,,1,,,Unknown,,200-9,37.906588,-121.229119,9/10/2018,68396,2019-05-14 21:16:45 UTC,SG,,,4/1/15,,,,,J1772,US,,,,Public - Appeler à l'avance,,public,CALL,,STATE_GOV,,,,,,,,,,,,,,,,SOLAR
UN,ELEC,American Chevrolet,4742 McHenry Ave,,Modesto,CA,95356,Public - Call ahead,Dealership business hours; for customer use only,,,,,,3,,,Unknown,,200-9,37.70884,-120.994273,3/7/2019,68398,2019-05-14 21:16:45 UTC,P,,,4/1/15,,,,,J1772,US,,,,Public - Appeler à l'avance,,public,CALL,,CAR_DEALER,,,,,,,Free,,,,,,,,,
UN,ELEC,Modesto Toyota,4513 McHenry Ave,,Modesto,CA,95354,Public - Call ahead,Dealership business hours,,,,,,1,,,Unknown,,200-9,37.7054,-120.995483,5/9/2019,68399,2019-05-14 21:16:45 UTC,P,,,4/1/15,,,,,J1772,US,,,,Public - Appeler à l'avance,,public,CALL,,CAR_DEALER,,,,,,,,,,,,,,,,
UN,ELEC,California State University - Stanislaus,1 University Cir,Located in Lot 2,Turlock,CA,95382,Public,24 hours daily; parking permit required,,,,,,2,,,Unknown,,GPS,37.522473,-120.860467,2/6/2019,68402,2019-05-14 21:16:45 UTC,P,,,4/1/17,,,,,J1772,US,,,,Public,,public,,,COLLEGE_CAMPUS,,,,,,,,,,,,,,,,
UN,ELEC,Smith Chevrolet Cadillac,1601 Auto Mall Dr,,Turlock,CA,95380,Public - Call ahead,Dealership business hours,,,,,,1,,,Unknown,,200-9,37.508226,-120.882066,5/9/2019,68403,2019-05-14 21:16:45 UTC,P,,,4/1/15,,,,,J1772,US,,,,Public - Appeler à l'avance,,public,CALL,,CAR_DEALER,,,,,,,Free,,,,,,,,,
UN,ELEC,Monarch Ford,132 N D St,,Exeter,CA,93221,Public - Call ahead,Dealership business hours,,,,,,2,,,Unknown,,200-9,36.297258,-119.140309,2/6/2019,68404,2019-05-14 21:16:45 UTC,P,,,4/1/15,,,,,J1772,US,,,,Public - Appeler à l'avance,,public,CALL,,CAR_DEALER,,,,,,,,,,,,,,,,
UN,ELEC,Harrah's Ak-Chin Casino,15406 N Maricopa Rd,Farrell Road and Highway 347,Maricopa,AZ,85139,Public,24 hours daily,,,,,,2,,,Unknown,,GPS,33.0238,-112.0502,5/3/2018,68409,2019-05-14 21:16:45 UTC,LG,,,5/1/15,,,,,J1772,US,,,,Public,,public,,,OTHER_ENTERTAINMENT,,,,,,,Free,,,,,,,,,
UN,ELEC,Pittsburgh Parking Authority - First Avenue Garage,600 First Ave,,Pittsburgh,PA,15219,Public,24 hours daily,,,,,,8,,,Unknown,,200-9,40.434971,-79.996112,8/7/2018,68410,2019-05-14 21:16:45 UTC,LG,,,4/28/15,,,,,J1772,US,,,,Public,,public,,,PARKING_GARAGE,,,,,,,Free,,,,,,,,,
UN,ELEC,Pittsburgh Parking Authority - Grant Street Transportation Garage,55 11th St,,Pittsburgh,PA,15222,Public,24 hours daily,,,,,,4,,,Unknown,,200-9,40.444975,-79.99285,8/7/2018,68412,2019-05-14 21:16:45 UTC,LG,,,6/24/15,,,,,J1772,US,,,,Public,,public,,,PARKING_GARAGE,,,,,,,Free,,,,,,,,,
UN,ELEC,Parker Adventist Hospital,9395 Crown Crest Blvd,Located in the parking garage,Parker,CO,80138,Public,24 hours daily,,,,,,1,,,Unknown,,200-9,39.548267,-104.770933,11/8/2018,68415,2019-05-14 21:16:45 UTC,P,,,6/1/15,,,,,J1772,US,,,,Public,,public,,,HOSPITAL,,,,,,,Free,,,,,,,,,
UN,ELEC,Carlock Nissan - Jackson,495 Vann Dr,,Jackson,TN,38305,Public - Call ahead,Dealership business hours,,,,,,1,1,,Unknown,,200-9,35.668646,-88.843323,7/9/2018,68421,2019-05-14 21:16:45 UTC,P,,,4/1/15,,,,,CHADEMO J1772 J1772COMBO,US,,,,Public - Appeler à l'avance,,public,CALL,,CAR_DEALER,,,,,,,Free,,,,,,,,,
UN,ELEC,City of Gloucester - City Hall Annex,3 Pond Rd,,Gloucester,MA,1930,Public,24 hours daily; 4 hour limit,,,,,,2,,,Unknown,,200-9,42.629952,-70.640756,10/4/2018,68430,2019-05-14 21:16:45 UTC,LG,,,5/5/15,,,,,J1772,US,,,,Public,,public,,,MUNI_GOV,,,,,,,Free,,,,,,,,,
UN,ELEC,AACA Antique Automobile Museum,161 Museum Dr,,Hummelstown,PA,17036,Public,24 hours daily; for visitors use only; see front desk for access,,,,,,1,,,Unknown,,200-9,40.297596,-76.690171,11/8/2018,68448,2019-05-14 21:16:45 UTC,P,,,4/1/15,,,,,J1772,US,,,,Public,,public,,,MUSEUM,,,,,,,Free,,,,,,,,,
UN,ELEC,Historic Smithton Inn,900 W Main St,,Ephrata,PA,17522,Public - Call ahead,24 hours daily; for guest use only; see front desk for access,,,,,,1,,,Unknown,,200-9,40.187425,-76.190132,11/8/2018,68451,2019-01-17 00:33:46 UTC,P,,,4/1/15,,,,,J1772,US,,,,Public - Appeler à l'avance,,public,CALL,,INN,,,,,,,"Free for guests, $15 per session for non-guests",,,,,,,,,
UN,ELEC,King's Cottage Bed and Breakfast,1049 E King St,,Lancaster,PA,17602,Public,24 hours daily; for guest use only; see front desk for access,,,,,,1,,,Unknown,,200-9,40.039697,-76.28134,10/4/2018,68452,2019-05-14 21:16:45 UTC,P,,,4/1/15,,,,,J1772,US,,,,Public,,public,,,B_AND_B,,,,,,,Free,,,,,,,,,
UN,ELEC,Normandy Farm Hotel & Conference Center,1401 Morris Rd,,Blue Bell,PA,19422,Public - Call ahead,24 hours daily; for visitor use only; see front desk for access,,,,,,2,,,Unknown,,200-9,40.181098,-75.277712,10/4/2018,68453,2019-05-14 21:16:45 UTC,P,,,4/1/15,,,,,J1772,US,,,,Public - Appeler à l'avance,,public,CALL,,HOTEL,,,,,,,,,,,,,,,,
UN,ELEC,The Sayre Mansion,250 Wyandotte St,,Bethlehem,PA,18015,Public - Call ahead,24 hours daily; see front desk for access,,,,,,1,,,Unknown,,200-9,40.612223,-75.384526,11/8/2018,68455,2019-05-14 21:16:45 UTC,P,,,4/1/15,,,,,J1772,US,,,,Public - Appeler à l'avance,,public,CALL,,B_AND_B,,,,,,,Free for guests; $12 per session for non-guests,,,,,,,,,
UN,ELEC,Casa Grandview Historic Luxury Inn Cottages and Suites,1410 Georgia Ave,,West Palm Beach,FL,33401,Public,24 hours daily; for registered guest use only; see front desk for access,,,,,,1,,,Unknown,,200-9,26.700322,-80.057742,6/6/2019,68461,2019-06-06 17:52:59 UTC,P,,,4/1/15,,,,,J1772,US,,,,Public,,public,,,HOTEL,,,,,,,Free,,,,,,,,,
UN,ELEC,Costa d'Este Beach Resort and Spa,3244 Ocean Dr,,Vero Beach,FL,32963,Public,24 hours daily; for guest use only; see valet for access,,,,,,1,,,Unknown,,200-9,27.652062,-80.355521,6/6/2019,68464,2019-06-06 17:52:59 UTC,P,,,4/1/15,,,,,J1772,US,,,,Public,,public,,,HOTEL,,,,,,,Free,,,,,,,,,
UN,ELEC,OK Corral Gun Club,9449 48th St NE,Located by the ranch house,Okeechobee,FL,34972,Public,24 hours daily; for guest use only; see front desk for access,,,,,,1,,,Unknown,,200-9,27.291008,-80.740067,6/6/2019,68477,2019-06-06 17:52:59 UTC,P,,,4/1/15,,,,,J1772,US,,,,Public,,public,,,OTHER_ENTERTAINMENT,,,,,,,Free,,,,,,,,,
UN,ELEC,The Alfond Inn,300 E New England Ave,,Winter Park,FL,32789,Public,24 hours daily; for guest use only; see valet for access,,,,,,1,,,Unknown,,200-9,28.595499,-81.347619,6/6/2019,68485,2019-06-06 17:52:59 UTC,P,,,4/1/15,,,,,J1772,US,,,,Public,,public,,,INN,,,,,,,,,,,,,,,,
UN,ELEC,The Ritz-Carlton - Amelia Island,4750 Amelia Island Pkwy,,Fernandina Beach,FL,32034,Public,24 hours daily; for guest use only; see valet for access,,,,,,3,,,Unknown,,200-9,30.593866,-81.444603,6/6/2019,68488,2019-06-06 17:52:59 UTC,P,,,4/1/15,,,,,J1772,US,,,,Public,,public,,,HOTEL,,,,,,,,,,,,,,,,
UN,ELEC,The Ritz-Carlton - South Beach,1 Lincoln Rd,,Miami Beach,FL,33139,Public,24 hours daily; for guest use only; see valet for access,,,,,,1,,,Unknown,,200-9,25.790993,-80.128912,6/6/2019,68490,2019-06-06 17:52:59 UTC,P,,,4/1/15,,,,,J1772,US,,,,Public,,public,,,HOTEL,,,,,,,Free,,,,,,,,,
UN,ELEC,Windemere Inn by the Sea,815 S Miramar Ave,,Indialantic,FL,32903,Public,24 hours daily; for guest use only,,,,,,1,,,Unknown,,200-9,28.086314,-80.564663,6/6/2019,68495,2019-06-06 17:52:59 UTC,P,,,4/1/15,,,,,J1772,US,,,,Public,,public,,,INN,,,,,,,Free for guests; $10 per session for non-guests,,,,,,,,,
UN,ELEC,Best Western Plus,922 E Highway 67,,Duncanville,TX,75137,Public,24 hours daily; for guest use only; see front desk for access,,,,,,1,,,Unknown,,200-9,32.641187,-96.88899,6/6/2019,68498,2019-06-06 17:52:59 UTC,P,,,5/1/15,,,,,J1772,US,,,,Public,,public,,,HOTEL,,,,,,,Free,,,,,,,,,
UN,ELEC,Best Western Plus,2450 Brinker Rd,,Denton,TX,76208,Public,24 hours daily; for guest use only; see front desk for access,,,,,,1,,,Unknown,,200-9,33.18238,-97.1003,6/6/2019,68499,2019-06-06 17:52:59 UTC,P,,,5/1/15,,,,,J1772,US,,,,Public,,public,,,HOTEL,,,,,,,,,,,,,,,,
UN,ELEC,Holiday Inn Express & Suites,4412 Bass Pro Dr,,Garland,TX,75043,Public,24 hours daily; see front desk for access,,,,,,1,,,Unknown,,200-9,32.864165,-96.540672,6/6/2019,68504,2019-06-06 17:52:59 UTC,P,,,5/1/15,,,,,J1772,US,,,,Public,,public,,,HOTEL,,,,,,,,,,,,,,,,
UN,ELEC,Holiday Inn Express & Suites,8330 W Amarillo Blvd,,Amarillo,TX,79124,Public - Call ahead,24 hours daily; for guest use by reservation only; see front desk for access,,,,,,1,,,Unknown,,200-9,35.192758,-101.933418,6/6/2019,68505,2019-06-06 17:52:59 UTC,P,,,5/1/15,,,,,J1772,US,,,,Public - Appeler à l'avance,,public,CALL,,HOTEL,,,,,,,,,,,,,,,,
UN,ELEC,NYLO Hotel - Irving,1001 W Royal Ln,,Irving,TX,75039,Public,24 hours daily; for guest use only; see front desk for access,,,,,,1,,,Unknown,,200-9,32.896737,-96.963028,6/6/2019,68521,2019-06-06 17:52:59 UTC,P,,,5/1/15,,,,,J1772,US,,,,Public,,public,,,HOTEL,,,,,,,Free,,,,,,,,,
UN,ELEC,NYLO Hotel - Plano,8201 Preston Rd,,Plano,TX,75024,Public,24 hours daily; for guest use only; see front desk for access,,,,,,1,,,Unknown,,200-9,33.088829,-96.806357,6/6/2019,68522,2019-06-06 17:52:59 UTC,P,,,5/1/15,,,,,J1772,US,,,,Public,,public,,,HOTEL,,,,,,,,,,,,,,,,
UN,ELEC,Smyrna Rest Area,5500 DuPont Pkwy,Located in the rear of the rest area. Follow the signs for trucks.,Smyrna,DE,19977,Public,24 hours daily,,,,,,2,,,Unknown,,GPS,39.322658,-75.618039,12/11/2018,68575,2019-05-14 21:16:45 UTC,P,,,6/15/15,,,,,J1772,US,,,,Public,,public,,,REST_STOP,,,,,,,Free,,,,,,,,,
UN,ELEC,Marriott Garage,101 S Paca St,Located at Paca St and Lombard St,Baltimore,MD,21201,Public,24 hours daily,,,,,,3,,,Unknown,,200-9,39.287168,-76.621895,5/9/2019,68577,2019-05-14 21:16:45 UTC,P,,,8/1/15,,,,,J1772,US,,,,Public,,public,,,PARKING_GARAGE,,,,,,,Free,,,,,,,,,
UN,ELEC,Price Chopper,1060 Madison Ave,,Albany,NY,12208,Public,24 hours daily; maximum stay of 2 hours,,,,,,2,,,Unknown,,200-9,42.664671,-73.790463,4/8/2019,68579,2019-05-14 21:16:45 UTC,P,,,5/1/15,,,,,J1772,US,,,,Public,,public,,,GROCERY,,,,,,,Free,,,,,,,,,
UN,ELEC,Alpine Bank,225 N 5th St,,Grand Junction,CO,81501,Public,24 hours daily,,,,,,2,,,Unknown,,200-9,39.068851,-108.565155,12/11/2018,68580,2019-05-14 21:16:45 UTC,P,,,4/14/15,,,,,J1772,US,,,,Public,,public,,,BANK,,,,,,,Free,,,,,,,,,
UN,ELEC,Antrim 1844 Country House Hotel,30 Trevanion Rd,,Taneytown,MD,21787,Public,24 hours daily; for guest use only; see front desk for access,,,,,,1,,,Unknown,,200-9,39.65497,-77.172717,10/4/2018,68582,2019-05-14 21:16:45 UTC,P,,,5/1/15,,,,,J1772,US,,,,Public,,public,,,HOTEL,,,,,,,Free,,,,,,,,,
UN,ELEC,Port Inn,505 US 1 Bypass S,,Portsmouth,NH,3801,Public,24 hours daily; see front desk for access,,,,,,1,,,Unknown,,200-9,43.069685,-70.77909,12/11/2018,68583,2019-01-17 00:33:46 UTC,P,,,7/20/15,,,,,J1772,US,,,,Public,,public,,,INN,,,,,,,$10 per session for non-guests,,,,,,,,,
UN,ELEC,NewBo City Market,1100 3rd St SE,,Cedar Rapids,IA,52401,Public - Call ahead,24 hours daily,,,,,,1,,,Unknown,,200-9,41.970962,-91.657987,4/8/2019,68584,2019-05-14 21:16:45 UTC,P,,,1/1/15,,,,,J1772,US,,,,Public - Appeler à l'avance,,public,CALL,,GROCERY,,,,,,,Free,,,,,,,,,
UN,ELEC,City of Greenville - Riverplace Garage,300 River St,,Greenville,SC,29601,Public,24 hours daily,,,,,,2,,,Unknown,,200-9,34.84724,-82.402911,6/5/2018,68597,2019-07-15 15:31:03 UTC,LG,,,1/1/15,,,,,J1772,US,,,,Public,,public,,,PAY_GARAGE,,,,,,,Free,,,,,,,,,
UN,ELEC,City of Greenville - River Street Garage,414 River St,,Greenville,SC,29601,Public,24 hours daily,,,,,,1,,,Unknown,,200-9,34.84879,-82.402143,7/6/2017,68598,2019-07-15 15:58:45 UTC,LG,,,6/1/18,,,,,J1772,US,,,,Public,,public,,,PAY_GARAGE,,,,,,,Free,,,,,,,,,
UN,ELEC,Hope Chapel Maui,300 E Welakaho Rd,Located in the last row of the parking lot under the covering,Kihei,HI,96753,Public,24 hours daily; must be a volunteer or member of JUMPSmartMaui; call 808-270-6802 for more information,,,,,,,4,,Unknown,,200-9,20.737885,-156.446822,4/8/2019,68746,2019-05-14 21:16:45 UTC,P,,,5/22/15,,,,,CHADEMO,US,,,,Public,,public,,,STANDALONE_STATION,,,,,,,$15 per month for JUMPSMART volunteers; $30 per month for non-volunteers,,,,,,,,,
UN,ELEC,Longs Drugs,55 Kiopaa St,The charging stations are located near the Kamehameha school football field.  It is also where the Upcountry Farmers Market is held.,Pukalani,HI,96768,Public,24 hours daily,,,,,,,4,,Unknown,,200-8,20.822094,-156.330177,4/8/2019,68747,2019-05-14 21:16:45 UTC,P,,,5/22/15,,,,,CHADEMO,US,,,,Public,,public,,,PARKING_LOT,,,,,,,$15 per month for JUMPSMART volunteers; $30 per month for non-volunteers,,,,,,,,,
UN,ELEC,Pukalani Terrace Center,55 Pukalani St,The charging station is located next to Bank of Hawaii and Ace Hardware store.,Pukalani,HI,96768,Public,24 hours daily,,,,,,,4,,Unknown,,200-9,20.837739,-156.342492,4/8/2019,68748,2019-05-14 21:16:45 UTC,P,,,5/22/15,,,,,CHADEMO,US,,,,Public,,public,,,SHOPPING_CENTER,,,,,,,$15 per month for JUMPSMART volunteers; $30 per month for non-volunteers,,,,,,,,,
UN,ELEC,Banks Lake Brew and Bistro,695 N 2nd St,,Coulee City,WA,99115,Public,24 hours daily,,,,,,1,,,Unknown,,GPS,47.61677938,-119.2876214,2/6/2019,68846,2019-05-14 21:16:45 UTC,P,,,8/3/15,,,,,J1772,US,,,,Public,,public,,,RESTAURANT,,,,,,,Free,,,,,,,,,
UN,ELEC,Blacksburg Municipal Building,300 S Main St,Entrance to parking lot is on Draper Road,Blacksburg,VA,24060,Public,24 hours daily; closed some weekends during football games,,,,,,,1,,Unknown,,GPS,37.227449,-80.412974,12/11/2018,68848,2019-05-14 21:16:45 UTC,LG,,,10/15/15,,,,,CHADEMO J1772COMBO,US,,,,Public,,public,,,MUNI_GOV,,,,,,,Free,,,,,,,,,
UN,ELEC,Historic Hampton Inn,401 E Nelson St,,Lexington,VA,24450,Public,24 hours daily,,,,,,,1,,Unknown,,GPS,37.779707,-79.438653,12/11/2018,68849,2019-05-14 21:16:45 UTC,LG,,,1/21/16,,,,,CHADEMO J1772COMBO,US,,,,Public,,public,,,HOTEL,,,,,,,,,,,,,,,,
UN,ELEC,Glenlaurel Inn,14940 Mt Olive Rd,,Rockbridge,OH,43149,Public,24 hours daily; for guest use only; see front desk for access,,,,,,1,,,Unknown,,200-9,39.52092,-82.56044,3/7/2019,68856,2019-05-14 21:16:45 UTC,P,,,7/1/15,,,,,J1772,US,,,,Public,,public,,,HOTEL,,,,,,,,,,,,,,,,
UN,ELEC,City of Suwanee,330 Town Center Ave NW,,Suwanee,GA,30024,Public,24 hours daily,,,,,,,1,,Unknown,,200-8,34.055883,-84.063599,10/4/2018,68859,2019-05-14 21:16:45 UTC,LG,,,7/1/15,,,,,CHADEMO J1772COMBO,US,,,,Public,,public,,,MUNI_GOV,,,,,,,$1.50 per session plus an additional $0.10 per minute,,,,,,,,,
UN,ELEC,Fredericksburg Street Parking,206 W Austin St,,Fredericksburg,TX,78624,Public,24 hours daily; Accepts MobileNow!,,,,,,2,,,Unknown,,200-8,30.277466,-98.873169,6/6/2019,68883,2019-06-06 17:52:59 UTC,P,,,6/1/15,,,,,J1772,US,,,,Public,,public,,,STREET_PARKING,,,,,,,$0.35 convenience fee plus additional payment on MobileNOW! App,,,,,,,,,
UN,ELEC,Best Western - Llano,901 W Young St,,Llano,TX,78643,Public,24 hours daily; for guest use only,,,,,,1,,,Unknown,,200-9,30.760105,-98.686483,6/6/2019,68884,2019-06-06 17:52:59 UTC,P,,,6/1/15,,,,,J1772,US,,,,Public,,public,,,HOTEL,,,,,,,Free,,,,,,,,,
UN,ELEC,Paris Autobarn LLC,161 E Main St,Located at the intersection of US RT 119 and East Oxford Rd,South Paris,ME,4281,Public,24 hours daily,,,,,,1,,,Unknown,,GPS,44.220643,-70.500415,2/6/2019,68888,2019-05-14 21:16:45 UTC,P,,,7/1/15,,,,,J1772,US,,,,Public,,public,,,GAS_STATION,,,,,,,Free,,,,,,,,,
UN,ELEC,Port Inn - Kennebunk,55 York St,,Kennebunk,ME,4043,Public,24 hours daily,A Cash D M V,,,,,1,,,Unknown,,200-9,43.379789,-70.549475,3/7/2019,68889,2019-05-14 21:16:45 UTC,P,,,8/15/15,,,,,J1772,US,,,,Public,,public,,,HOTEL,,,,,,,Free,,,,,,,,,
UN,ELEC,Ambrose Hotel,1255 20th St,,Santa Monica,CA,90404,Public,24 hours daily; for guest use only; see front desk for access,,,,,,2,,,Unknown,,200-9,34.030445,-118.481495,5/9/2019,68899,2019-05-14 21:16:45 UTC,P,,,3/1/15,,,,,J1772,US,,,,Public,,public,,,HOTEL,,,,,,,,,,,,,,,,
UN,ELEC,Avila Lighthouse Suites,550 Front St,,Avila Beach,CA,93424,Public,24 hours daily; for guest use only,,,,,,1,,,Unknown,,200-9,35.179296,-120.735391,2/6/2019,68900,2019-05-14 21:16:45 UTC,P,,,4/1/15,,,,,J1772,US,,,,Public,,public,,,HOTEL,,,,,,,Free,,,,,,,,,
UN,ELEC,Ayres Hotel & Spa,14400 Hindry Ave,,Hawthorne,CA,90250,Public,24 hours daily; for guest use only; pay lot,,,,,,1,,,Unknown,,200-9,33.900892,-118.371544,2/6/2019,68904,2019-05-14 21:16:45 UTC,P,,,4/1/15,,,,,J1772,US,,,,Public,,public,,,HOTEL,,,,,,,Free,,,,,,,,,
UN,ELEC,Basecamp Hotel,4143 Cedar Ave,,South Lake Tahoe,CA,96150,Public,24 hours daily; for guest use only; see front desk for access,,,,,,1,,,Unknown,,200-9,38.96003,-119.944593,5/9/2019,68908,2019-05-14 21:16:45 UTC,P,,,4/1/15,,,,,J1772,US,,,,Public,,public,,,HOTEL,,,,,,,,,,,,,,,,
UN,ELEC,Best Western,34280 Pacific Coast Hwy,,Dana Point,CA,92629,Public,24 hours daily; for guest use only,,,,,,2,,,Unknown,,200-9,33.465904,-117.689368,2/6/2019,68916,2019-05-14 21:16:45 UTC,P,,,4/1/15,,,,,J1772,US,,,,Public,,public,,,HOTEL,,,,,,,,,,,,,,,,
UN,ELEC,Shore Cliff Hotel,2555 Price St,,Pismo Beach,CA,93449,Public,24 hours daily; for guest use only,,,,,,1,,,Unknown,,GPS,35.149058,-120.653225,5/9/2019,68917,2019-05-14 21:16:45 UTC,P,,,5/1/15,,,,,J1772,US,,,,Public,,public,,,HOTEL,,,,,,,Free,,,,,,,,,
UN,ELEC,Best Western,75 W Thousand Oaks Blvd,,Thousand Oaks,CA,91360,Public,24 hours daily; for guest use only,,,,,,2,,,Unknown,,200-9,34.179051,-118.878913,5/9/2019,68919,2019-05-14 21:16:45 UTC,P,,,3/1/15,,,,,J1772,US,,,,Public,,public,,,HOTEL,,,,,,,,,,,,,,,,
UN,ELEC,Blue Dolphin Inn,6470 Moonstone Beach Dr,,Cambria,CA,93428,Public,24 hours daily; for guest use only,,,,,,1,,,Unknown,,200-9,35.57642,-121.113373,2/6/2019,68922,2019-05-14 21:16:45 UTC,P,,,6/1/15,,,,,J1772,US,,,,Public,,public,,,HOTEL,,,,,,,,,,,,,,,,
UN,ELEC,Bob's Well Bread Bakery,550 Bell St,,Los Alamos,CA,93440,Public,24 hours daily; for customer use only,,,,,,1,,,Unknown,,200-9,34.743568,-120.276817,2/6/2019,68923,2019-05-14 21:16:45 UTC,P,,,3/1/15,,,,,J1772,US,,,,Public,,public,,,RESTAURANT,,,,,,,,,,,,,,,,
UN,ELEC,Cedar Glen Lodge,6589 N Lake Blvd,,Tahoe Vista,CA,96148,Public,24 hours daily; for guest use only; see front desk for access,,,,,,1,,,Unknown,,200-9,39.241679,-120.056604,5/9/2019,68932,2019-05-14 21:16:45 UTC,P,,,4/1/15,,,,,J1772,US,,,,Public,,public,,,HOTEL,,,,,,,Free,,,,,,,,,
UN,ELEC,Plainville High School,47 Robert Holcomb Way,In the rear parking lot of high school by athletic fields,Plainville,CT,6062,Public,24 hours daily,,,,,,1,,,Unknown,,GPS,41.6659341,-72.8580302,4/8/2019,68934,2019-05-14 21:16:45 UTC,P,,,1/15/15,,,,,J1772,US,,,,Public,,public,,,SCHOOL,,,,,,,Free,,,,,,,,,
UN,ELEC,Plainville Town Hall,1 Central Square,,Plainville,CT,6062,Public,24 hours daily,,,,,,1,,,Unknown,,GPS,41.6717114,-72.8670213,4/8/2019,68935,2019-05-14 21:16:45 UTC,LG,,,1/15/15,,,,,J1772,US,,,,Public,,public,,,MUNI_GOV,,,,,,,Free,,,,,,,,,
UN,ELEC,Connecticut Department of Corrections,38 Wolcott Hill Rd,Wolcott Hill/Jordan Lane,Wethersfield,CT,6109,Public,24 hours daily,,,,,,2,,,Unknown,,GPS,41.725002,-72.6724544,4/8/2019,68936,2019-05-14 21:16:45 UTC,SG,,,4/1/15,,,,,J1772,US,,,,Public,,public,,,STATE_GOV,,,,,,,Free,,,,,,,,,
UN,ELEC,Tingue Dam Bypass Channel - Wakeley Street Parking Lot,37 Wakeley St,,Seymour,CT,6483,Public,24 hours daily,,,,,,2,,,Unknown,,GPS,41.394218,-73.075067,4/3/2018,68937,2019-05-14 21:16:45 UTC,LG,,,6/1/15,,,,,J1772,US,,,,Public,,public,,,PARKING_LOT,,,,,,,Free,,,,,,,,,
UN,ELEC,Easton Public Library,691 Morehouse Rd,,Easton,CT,6612,Public,24 hours daily,,,,,,2,,,Unknown,,GPS,41.251966,-73.297822,6/6/2019,68939,2019-06-06 17:52:59 UTC,P,,,8/1/15,,,,,J1772,US,,,,Public,,public,,,LIBRARY,,,,,,,Free,,,,,,,,,
UN,ELEC,Marriott - Coronado Island,2000 2nd St,,Coronado,CA,92118,Public,24 hours daily; for guest use only; see front desk for access; pay lot,,,,,,1,,,Unknown,,200-8,32.694671,-117.166897,2/6/2019,68955,2019-05-14 21:16:45 UTC,P,,,5/1/15,,,,,J1772,US,,,,Public,,public,,,HOTEL,,,,,,,Free,,,,,,,,,
UN,ELEC,Courtwood Inn,2081 Ponderosa Way,,Murphys,CA,95247,Public,24 hours daily; for guest use only; see front desk for access,,,,,,1,,,Unknown,,200-8,38.125765,-120.424106,12/11/2018,68956,2019-05-14 21:16:45 UTC,P,,,6/1/15,,,,,J1772,US,,,,Public,,public,,,HOTEL,,,,,,,,,,,,,,,,
UN,ELEC,Courtyard Marriott,717 S Highway 101,,Solana Beach,CA,92075,Public,24 hours daily; see front desk for access,,,,,,3,,,Unknown,,200-9,32.982895,-117.270353,5/9/2019,68958,2019-05-14 21:16:45 UTC,P,,,3/1/15,,,,,J1772,US,,,,Public,,public,,,HOTEL,,,,,,,,,,,,,,,,
UN,ELEC,Evergreen Lodge,33160 Evergreen Rd,,Groveland,CA,95321,Public,24 hours daily; for guest use only; see front desk for access,,,,,,1,,,Unknown,,200-9,37.876236,-119.859107,2/6/2019,68966,2019-05-14 21:16:45 UTC,P,,,6/1/15,,,,,J1772,US,,,,Public,,public,,,HOTEL,,,,,,,Free,,,,,,,,,
UN,ELEC,Farmhouse Inn,7871 River Rd,,Forestville,CA,95436,Public,24 hours daily; for guest use only,,,,,,1,,,Unknown,,200-9,38.489318,-122.883695,2/6/2019,68970,2019-05-14 21:16:45 UTC,P,,,5/1/15,,,,,J1772,US,,,,Public,,public,,,HOTEL,,,,,,,Free,,,,,,,,,
UN,ELEC,Grande Colonial Hotel,910 Prospect St,,San Diego,CA,92037,Public,24 hours daily; for guest use only; see valet for access,,,,,,1,,,Unknown,,200-9,32.847206,-117.275534,5/9/2019,68978,2019-05-14 21:16:45 UTC,P,,,3/1/15,,,,,J1772,US,,,,Public,,public,,,HOTEL,,,,,,,,,,,,,,,,
UN,ELEC,Hotel Bel-Air,701 Stone Canyon Rd,,Los Angeles,CA,90077,Public,24 hours daily; for guest use only; see valet for access; pay lot,,,,,,1,,,Unknown,,200-9,34.086453,-118.446351,3/7/2019,68982,2019-05-14 21:16:45 UTC,P,,,2/1/15,,,,,J1772,US,,,,Public,,public,,,HOTEL,,,,,,,,,,,,,,,,
UN,ELEC,Hyatt - Carmel Highlands,120 Highlands Dr,,Carmel,CA,93923,Public,24 hours daily; for guest use only; see front desk for access,,,,,,1,,,Unknown,,200-9,36.501993,-121.937239,2/6/2019,68984,2019-05-14 21:16:45 UTC,P,,,4/1/15,,,,,J1772,US,,,,Public,,public,,,HOTEL,,,,,,,Free,,,,,,,,,
UN,ELEC,beKind Salon and Spa,2479 County Rd E,,St. Paul,MN,55110,Public - Call ahead,9am-8pm daily,,,,,,1,,,Unknown,,GPS,45.050399,-92.995996,3/7/2019,69087,2019-05-14 21:16:45 UTC,P,,,8/16/15,,,,,J1772,US,,,,Public - Appeler à l'avance,,public,CALL,,SHOPPING_CENTER,,,,,,,Free,,,,,,,,,
UN,ELEC,Town of Newington - Market Square,90 Market Square,Located in the municipal parking lot,Newington,CT,6111,Public,24 hours daily,,,,,,4,,,Unknown,,GPS,41.6972,-72.7214,6/6/2019,69089,2019-06-06 17:52:59 UTC,LG,,,8/1/15,,,,,J1772,US,,,,Public,,public,,,MUNI_GOV,,,,,,,Free,,,,,,,,,
UN,ELEC,Holiday Inn,1698 Highway 190 W,,Eunice,LA,70535,Public,24 hours daily,,,,,,2,,,Unknown,,200-9,30.494393,-92.442632,3/7/2019,69091,2019-05-14 21:16:45 UTC,P,,,8/1/15,,,,,J1772,US,,,,Public,,public,,,HOTEL,,,,,,,Free,,,,,,,,,
UN,ELEC,Spring Street Parking Garage,45 Spring St,,Portland,ME,4101,Public - Call ahead,Garage business hours; maximum session time of 2 hours,,,,,,1,,,Unknown,,200-9,43.655543,-70.259227,3/7/2019,69093,2019-05-14 21:16:45 UTC,P,,,8/1/15,,,,,J1772,US,,,,Public - Appeler à l'avance,,public,CALL,,PAY_GARAGE,,,,,,,Free,,,,,,,,,
UN,ELEC,Temple Street Parking Garage,11 Temple St,,Portland,ME,4101,Public - Call ahead,Garage business hours,,,,,,1,,,Unknown,,200-9,43.657334,-70.256314,3/7/2019,69094,2019-05-14 21:16:45 UTC,P,,,8/1/15,,,,,J1772,US,,,,Public - Appeler à l'avance,,public,CALL,,PAY_GARAGE,,,,,,,Free,,,,,,,,,
UN,ELEC,Raymond Town Hall,401 Webbs Mills Rd,,Raymond,ME,4071,Public,24 hours daily,,,,,,1,,,Unknown,,GPS,43.935206,-70.44176,3/7/2019,69096,2019-05-14 21:16:45 UTC,LG,,,8/1/15,,,,,J1772,US,,,,Public,,public,,,MUNI_GOV,,,,,,,Free,,,,,,,,,
UN,ELEC,The Grove,189 The Grove Dr,Located on the 3rd level of the garage,Los Angeles,CA,90036,Public,24 hours daily; parking free with validation,,,,,,4,,,Unknown,,200-9,34.071976,-118.358007,2/6/2019,69138,2019-05-14 21:16:45 UTC,P,,,5/1/15,,,,,J1772,US,,,,Public,,public,,,SHOPPING_MALL,,,,,,,Free,,,,,,,,,
UN,ELEC,Laurel Ridge Winery,13301 NE Kuelene Rd,,Carlton,OR,97111,Public,11am-5pm daily,,,,,,2,,,Unknown,,200-9,45.313977,-123.100942,3/7/2019,69732,2019-05-14 21:16:45 UTC,P,,,9/1/15,,,,,J1772,US,,,,Public,,public,,,RESTAURANT,,,,,,,Free,,,,,,,,,SOLAR
UN,ELEC,Redding Kia,418 E Cypress Ave,,Redding,CA,96002,Public - Call ahead,Dealership business hours,,,,,,1,,,Unknown,,200-9,40.571392,-122.364311,5/3/2018,69734,2019-05-14 21:16:45 UTC,P,,,8/1/15,,,,,J1772,US,,,,Public - Appeler à l'avance,,public,CALL,,CAR_DEALER,,,,,,,Free,,,,,,,,,
UN,ELEC,Royal Farms - Bridgeville,18657 Sussex Hwy,,Bridgeville,DE,19933,Public,24 hours daily,,,,,,2,,,Unknown,,GPS,38.72345833,-75.58873611,12/11/2018,69735,2019-05-14 21:16:45 UTC,P,,,8/26/15,,,,,J1772,US,,,,Public,,public,,,GAS_STATION,,,,,,,Free,,,,,,,,,
UN,ELEC,Redwood Garage,11 S Eutaw St,,Baltimore,MD,21201,Public,24 hours daily,,,,,,4,,,Unknown,,200-9,39.288504,-76.620394,5/9/2019,69736,2019-05-14 21:16:45 UTC,P,,,10/1/15,,,,,J1772,US,,,,Public,,public,,,PARKING_GARAGE,,,,,,,Free,,,,,,,,,
UN,ELEC,Annex Garage,140 W Patrick St,,Frederick,MD,21701,Public,8am-5pm daily,,,,,,2,,,Unknown,,200-9,39.414063,-77.413739,5/9/2019,69737,2019-05-14 21:16:45 UTC,P,,,9/1/15,,,,,J1772,US,,,,Public,,public,,,PARKING_GARAGE,,,,,,,Free,,,,,,,,,
UN,ELEC,Holiday Inn & Suites,14255 N 87th St,,Scottsdale,AZ,85260,Public,24 hours daily; see front desk for access,,,,,,2,,,Unknown,,GPS,33.614103,-111.893012,10/4/2018,69739,2019-05-14 21:16:45 UTC,P,,,8/1/15,,,,,J1772,US,,,,Public,,public,,,HOTEL,,,,,,,Free,,,,,,,,,
UN,ELEC,Kwik Trip #245,95 4th Ave SE,,Plainview,MN,55964,Public,24 hours daily,,,,,1,,,,Unknown,,200-9,44.160507,-92.165581,3/7/2019,69835,2019-05-14 21:16:45 UTC,P,,,8/20/15,,,,,NEMA520,US,,,,Public,,public,,,CONVENIENCE_STORE,,,,,,,Free,,,,,,,,,
UN,ELEC,Kwik Trip #249,1630 Vermillion St,,Hastings,MN,55033,Public,24 hours daily,,,,,1,,,,Unknown,,GPS,44.729001,-92.852977,3/7/2019,69836,2019-05-14 21:16:45 UTC,P,,,3/13/15,,,,,NEMA520,US,,,,Public,,public,,,CONVENIENCE_STORE,,,,,,,Free,,,,,,,,,
UN,ELEC,Kwik Trip #275,1701 Premier Dr,,Mankato,MN,56001,Public,24 hours daily,,,,,1,,,,Unknown,,GPS,44.188009,-93.95074,3/7/2019,69837,2019-05-14 21:16:45 UTC,P,,,7/30/15,,,,,NEMA520,US,,,,Public,,public,,,CONVENIENCE_STORE,,,,,,,Free,,,,,,,,,
UN,ELEC,Kwik Trip #287,5040 W Rawson Ave,,Franklin,WI,53132,Public,24 hours daily,,,,,1,,,,Unknown,,GPS,42.916574,-87.97851,11/8/2018,69838,2019-05-14 21:16:45 UTC,P,,,4/2/15,,,,,NEMA520,US,,,,Public,,public,,,CONVENIENCE_STORE,,,,,,,Free,,,,,,,,,
UN,ELEC,Kwik Trip #718,1504 Superior Ave,,Tomah,WI,54660,Public,24 hours daily,A Cash Checks D M V,,,,1,,,,Unknown,,GPS,43.97248,-90.50431,11/8/2018,69839,2019-05-14 21:16:45 UTC,P,,,7/2/15,,,,,NEMA520,US,,,,Public,,public,,,CONVENIENCE_STORE,,,,,,,,,,,,,,,,
UN,ELEC,Kwik Trip #879,750 E Green Bay Ave,,Saukville,WI,53080,Public,24 hours daily,,,,,1,,,,Unknown,,GPS,43.385043,-87.930064,11/8/2018,69840,2019-05-14 21:16:45 UTC,P,,,7/17/15,,,,,NEMA520,US,,,,Public,,public,,,CONVENIENCE_STORE,,,,,,,Free,,,,,,,,,
UN,ELEC,Kwik Trip #181,730 E Wisconsin Ave,,Appleton,WI,54911,Public,24 hours daily,,,,,1,,,,Unknown,,GPS,44.273194,-88.39634,3/7/2019,69841,2019-05-14 21:16:45 UTC,P,,,5/20/15,,,,,NEMA520,US,,,,Public,,public,,,CONVENIENCE_STORE,,,,,,,Free,,,,,,,,,
UN,ELEC,Kwik Trip #182,360 N Richmond St,,Appleton,WI,54911,Public,24 hours daily,,,,,1,,,,Unknown,,GPS,44.26449,-88.41472,3/7/2019,69842,2019-05-14 21:16:45 UTC,P,,,6/4/15,,,,,NEMA520,US,,,,Public,,public,,,CONVENIENCE_STORE,,,,,,,Free,,,,,,,,,
UN,ELEC,Kwik Trip #230,10451 72nd Ave,,Pleasant Prairie,WI,53158,Public,24 hours daily,,,,,1,,,,Unknown,,GPS,42.522504,-87.894088,1/10/2019,69843,2019-05-14 21:16:45 UTC,P,,,8/6/15,,,,,NEMA520,US,,,,Public,,public,,,CONVENIENCE_STORE,,,,,,,Free,,,,,,,,,
UN,ELEC,Kwik Trip #280,301 W Kimberly Rd,,Davenport,IA,52806,Public,24 hours daily,,,,,1,,,,Unknown,,GPS,41.559259,-90.57509,3/7/2019,69844,2019-05-14 21:16:45 UTC,P,,,8/20/15,,,,,NEMA520,US,,,,Public,,public,,,CONVENIENCE_STORE,,,,,,,Free,,,,,,,,,
UN,ELEC,Kwik Trip #282,1212 N Rochester St,,Mukwonago,WI,53149,Public,24 hours daily,,,,,1,,,,Unknown,,GPS,42.880666,-88.34085,7/9/2018,69845,2019-05-14 21:16:45 UTC,P,,,8/13/15,,,,,NEMA520,US,,,,Public,,public,,,CONVENIENCE_STORE,,,,,,,Free,,,,,,,,,
UN,ELEC,Kwik Trip #294,1650 W Kimberly Rd,,Davenport,IA,52806,Public,24 hours daily,,,,,1,,,,Unknown,,GPS,41.560308,-90.599092,3/7/2019,69846,2019-05-14 21:16:45 UTC,P,,,7/23/15,,,,,NEMA520,US,,,,Public,,public,,,CONVENIENCE_STORE,,,,,,,Free,,,,,,,,,
UN,ELEC,Kwik Star #299,2283 53rd Ave,,Bettendorf,IA,52722,Public,24 hours daily,,,,,1,,,,Unknown,,GPS,41.57449,-90.50023,4/8/2019,69847,2019-05-14 21:16:45 UTC,P,,,8/6/15,,,,,NEMA520,US,,,,Public,,public,,,CONVENIENCE_STORE,,,,,,,Free,,,,,,,,,
UN,ELEC,Kwik Trip #777,270 Broadway,,Berlin,WI,54923,Public,24 hours daily,,,,,1,,,,Unknown,,GPS,43.968611,-88.95305,1/10/2019,69848,2019-05-14 21:16:45 UTC,P,,,8/27/15,,,,,NEMA520,US,,,,Public,,public,,,CONVENIENCE_STORE,,,,,,,Free,,,,,,,,,
UN,ELEC,City of Santa Fe - Genoveva Chavez Community Center,3221 W Rodeo Rd,,Santa Fe,NM,87507,Public,7am-6pm daily,,,,,,1,,,Unknown,,200-9,35.641221,-105.994804,10/4/2018,69878,2019-05-14 21:16:45 UTC,LG,,,5/1/15,,,,,J1772,US,,,,Public,,public,,,REC_SPORTS_FACILITY,,,,,,,Free,,,,,,,,,
UN,ELEC,Holiday Inn,99 Bradley Dr,,Christiansburg,VA,24073,Public,24 hours daily; please see front desk for access,,,,,,1,,,Unknown,,GPS,37.162471,-80.427306,12/11/2018,69909,2019-05-14 21:16:45 UTC,P,,,9/1/15,,,,,J1772,US,,,,Public,,public,,,HOTEL,,,,,,,Free,,,,,,,,,
UN,ELEC,Fleet & Eden Garage,501 S Eden St,,Baltimore,MD,21231,Public,Garage business hours,,,,,,4,,,Unknown,,200-8,39.285366,-76.598315,5/9/2019,69942,2019-05-14 21:16:45 UTC,P,,,10/15/15,,,,,J1772,US,,,,Public,,public,,,PAY_GARAGE,,,,,,,Free,,,,,,,,,
UN,ELEC,City of Woodland - Public Parking,617 Dead Cat Alley,Located at First St and Dead Cat Alley,Woodland,CA,95695,Public,24 hours daily; 2 hour parking limit,,,,,,4,,,Unknown,,GPS,38.6783,-121.7727,6/6/2019,69944,2019-06-06 17:52:59 UTC,LG,,,2/10/15,,,,,J1772,US,,,,Public,,public,,,PARKING_LOT,,,,,,,Free,,,,,,,,,
UN,ELEC,City of Woodland - Woodland Public Library,501 Court St,NE corner of Court and College Streets,Woodland,CA,95695,Public,24 hours daily,,,,,,1,,,Unknown,,GPS,38.6792,-121.7743,6/6/2019,69945,2019-06-06 17:52:59 UTC,LG,,,2/10/15,,,,,J1772,US,,,,Public,,public,,,LIBRARY,,,,,,,Free,,,,,,,,,
UN,ELEC,Holiday Inn,315 W Yellowstone Ave,,West Yellowstone,MT,59758,Public - Call ahead,24 hours daily; for guest use only,,,,,,1,,,Unknown,,200-8,44.658762,-111.105078,4/8/2019,69948,2019-05-14 21:16:45 UTC,P,,,9/20/15,,,,,J1772,US,,,,Public - Appeler à l'avance,,public,CALL,,HOTEL,,,,,,,,,,,,,,,,
UN,ELEC,Castaic Lake RV Park,31540 Ridge Route Rd,,Castaic,CA,91384,Public,24 hours daily; EVRUS Card,,,,,,1,1,,Unknown,,200-8,34.491866,-118.616811,2/6/2019,69973,2019-05-14 21:16:45 UTC,P,,,6/29/16,,,,,CHADEMO J1772,US,,,,Public,,public,,,CAMPGROUND,,,,,,,,,,,,,,,,
UN,ELEC,Baldwin Hills Overlook State Park,6300 Hetlzer Rd,,Culver City,CA,90232,Public,8am-sunset daily; pay lot,,,,,,3,,,Unknown,,GPS,34.0164503,-118.3819692,3/7/2019,69976,2019-05-14 21:16:45 UTC,SG,,,5/30/17,,,,,J1772,US,,,,Public,,public,,,PARK,,,,,,,Free,,,,,,,,,
UN,ELEC,Bayside Business Park,46714 Fremont Blvd,,Fremont,CA,94538,Public,24 hours daily,,,,,,,2,,Unknown,,GPS,37.481158,-121.945216,9/10/2018,69986,2019-05-14 21:16:45 UTC,P,,,1/1/16,,,,,CHADEMO J1772COMBO,US,,,,Public,,public,,,OFFICE_BLDG,,,,,,,Free,,,,,,,,,
UN,ELEC,Los Angeles Zoo,5333 Zoo Dr,,Los Angeles,CA,90027,Public,6am-11pm daily,,,,,,6,,,Unknown,,GPS,34.148873,-118.283976,2/6/2019,70010,2019-05-14 21:16:45 UTC,P,,,11/1/15,,,,,J1772,US,,,,Public,,public,,,OTHER_ENTERTAINMENT,,,,,,,Free,,,,,,,,,
UN,ELEC,Good Samaritan Hospital - Level 2,636 Lucas Ave,,Los Angeles,CA,90017,Public - Call ahead,Garage business hours,,,,,,3,,,Unknown,,GPS,34.053453,-118.264153,2/6/2019,70011,2019-05-14 21:16:45 UTC,P,,,7/1/15,,,,,J1772,US,,,,Public - Appeler à l'avance,,public,CALL,,HOSPITAL,,,,,,,,,,,,,,,,
UN,ELEC,Good Samaritan Hospital - Level 3,636 Lucas Ave,,Los Angeles,CA,90017,Public - Call ahead,Garage business hours,,,,,,3,,,Unknown,,GPS,34.053453,-118.264153,2/6/2019,70012,2019-05-14 21:16:45 UTC,P,,,7/1/15,,,,,J1772,US,,,,Public - Appeler à l'avance,,public,CALL,,HOSPITAL,,,,,,,,,,,,,,,,
O,ELEC,San Joaquin Valley Air Pollution Control District - Modesto Regional Office,4800 Enterprise Way,,Modesto,CA,95356,Public,8am-5pm M-F,,,,,,3,,,EV Connect,http://evconnect.com/,GPS,37.70759,-121.071435,5/9/2019,70017,2019-05-14 21:16:45 UTC,LG,,,7/1/15,,,,,J1772,US,,,,Public,,public,,,MUNI_GOV,,,,,,,Free,,,,,,,,,
UN,ELEC,City of Rancho Cordova - City Hall,2729 Prospect Park Dr,,Rancho Cordova,CA,95670,Public,24 hours daily,,,,,,4,,,Unknown,,GPS,38.589518,-121.284659,5/9/2019,70064,2019-05-14 21:16:45 UTC,LG,,,7/1/15,,,,,J1772,US,,,,Public,,public,,,MUNI_GOV,,,,,,,Free,,,,,,,,,
UN,ELEC,Sacramento Natural Foods Co-Op,2815 S St,Located in the parking garage,Sacramento,CA,95816,Public,24 hours daily,,,,,,9,,,Unknown,,GPS,38.564078,-121.472785,11/8/2018,70068,2019-01-17 00:33:46 UTC,P,,,7/1/15,,,,,J1772,US,,,,Public,,public,,,COOP,,,,,,,CMI: $0.24 per kWh,,,,,,,,,
UN,ELEC,The Green Building,732 E Market St,,Louisville,KY,40202,Public,24 hours daily,,,,,,1,,,Unknown,,200-9,38.252876,-85.738754,7/9/2018,70143,2019-05-14 21:16:45 UTC,P,,,10/1/15,,,,,J1772,US,,,,Public,,public,,,PARKING_LOT,,,,,,,Free,,,,,,,,,
UN,ELEC,Porsche and BMW of Ocala,5155 SW College Rd,"Two located in front, one located in back",Ocala,FL,34474,Public - Call ahead,Dealership business hours,,,,,,4,,,Unknown,,200-8,29.128832,-82.206937,2/6/2019,70233,2019-05-14 21:16:45 UTC,P,,,9/1/15,,,,,J1772,US,,,,Public - Appeler à l'avance,,public,CALL,,CAR_DEALER,,,,,,,Free,,,,,,,,,
UN,ELEC,Gray Wolf Inn and Suites,250 S Canyon St,,West Yellowstone,MT,59758,Public,24 hours daily; see front desk for access,,,,,,1,,,Unknown,,200-9,44.655724,-111.100956,4/8/2019,70262,2019-05-14 21:16:45 UTC,P,,,9/20/15,,,,,J1772,US,,,,Public,,public,,,HOTEL,,,,,,,,,,,,,,,,
